stop_id,stop_code,stop_name,stop_lat,stop_lon,zone_id
1,"FRWO41","Franowo",52.3814339100,17.0003228700,A
2,"SOB42","Os. Sobieskiego",52.4638000300,16.9166601800,A
3,"SOB41","Os. Sobieskiego",52.4639504200,16.9178214900,A
4,"MT72","Most Teatralny",52.4107374400,16.9126471700,A
5,"MT44","Most Teatralny",52.4109651200,16.9137425100,A
6,"MT43","Most Teatralny",52.4103354900,16.9143484000,A
7,"POZN41","Poznańska",52.4133151800,16.9151929400,A
8,"POZN42","Poznańska",52.4140944800,16.9162984600,A
9,"SOLA41","Sołacz",52.4235161000,16.9034093800,A
10,"SOLA42","Sołacz",52.4230151800,16.9036213400,A
11,"UP41","Uniwersytet Przyrodniczy",52.4263916700,16.9059923800,A
12,"UP42","Uniwersytet Przyrodniczy",52.4269057500,16.9062196600,A
13,"BONN42","Bonin",52.4302063000,16.9106352900,A
14,"BONN41","Bonin",52.4303010700,16.9108599400,A
15,"SLKA42","Słowiańska",52.4271177700,16.9192237100,A
16,"SLKA41","Słowiańska",52.4271586000,16.9194629700,A
17,"SWLE42","Św. Leonarda",52.4326696000,16.9111834100,A
18,"SWLE41","Św. Leonarda",52.4328189300,16.9113883000,A
19,"NADW42","Nad Wierzbakiem",52.4213126600,16.9081035700,A
20,"NADW41","Nad Wierzbakiem",52.4214233900,16.9080444000,A
21,"KLIN42","Klin",52.4186542100,16.9140014500,A
22,"KLIN41","Klin",52.4187683300,16.9140675600,A
23,"ALSO42","Aleje Solidarności",52.4359820600,16.9199740600,A
24,"ALSO41","Aleje Solidarności",52.4359483100,16.9202087300,A
25,"LECH42","Lechicka/Poznań Plaza",52.4424734100,16.9198205300,A
26,"LECH41","Lechicka/Poznań Plaza",52.4425062700,16.9200857100,A
27,"KURP42","Kurpińskiego",52.4507481400,16.9194124100,A
28,"KURP41","Kurpińskiego",52.4507725100,16.9196313300,A
29,"SZYM42","Szymanowskiego",52.4603710300,16.9169382500,A
30,"SZYM41","Szymanowskiego",52.4603958500,16.9171552600,A
31,"WIKA42","Wielkopolska",52.4155123100,16.9182845700,A
32,"WIKA41","Wielkopolska",52.4155633900,16.9185920900,A
33,"ARPO42","Armii Poznań",52.4213487500,16.9235154600,A
34,"ARPO41","Armii Poznań",52.4213219800,16.9236569500,A
35,"ZNIW42","Żniwna",52.4247660000,16.9268332600,A
37,"PASI41","Pasieka",52.4261525300,16.9311888200,A
38,"PASI42","Pasieka",52.4263859700,16.9318731300,A
39,"MURA42","Murawa",52.4268984600,16.9358033000,A
40,"MURA41","Murawa",52.4269504200,16.9359653500,A
46,"OPL42","Os. Pod Lipami",52.4309440500,16.9362506500,A
47,"OPL41","Os. Pod Lipami",52.4310010800,16.9364029400,A
48,"ROSO42","Rondo Solidarności",52.4339380800,16.9377328700,A
49,"ROSO41","Rondo Solidarności",52.4339826300,16.9379315500,A
50,"POLA42","Połabska",52.4348514000,16.9323765300,A
51,"POLA41","Połabska",52.4352225400,16.9319816600,A
52,"WINI42","Os. Winiary",52.4356506500,16.9113141800,A
53,"WINI41","Os. Winiary",52.4359270900,16.9115017500,A
54,"LUSZ41","Lutycka Szpital",52.4396789800,16.9101567100,A
55,"LUSZ42","Lutycka Szpital",52.4397183900,16.9099956200,A
56,"PIAT41","Piątkowska",52.4415302943,16.9112689393,A
57,"PIAT42","Piątkowska",52.4414917400,16.9105875300,A
58,"OGDY41","Ogrody",52.4170536400,16.8824626700,A
59,"OGDY42","Ogrody",52.4163628200,16.8829024900,A
62,"PONA72","Polna",52.4142414300,16.8966975400,A
63,"PONA71","Polna",52.4142148300,16.8972021400,A
64,"RJEZ74","Rynek Jeżycki",52.4122250800,16.9056406100,A
65,"RJEZ73","Rynek Jeżycki",52.4125350800,16.9047706000,A
66,"BUKO42","Bukowska",52.4100013000,16.8886379300,A
67,"BUKO41","Bukowska",52.4100521300,16.8888257200,A
68,"RONJ42","Rondo Nowaka-Jeziorańskiego",52.4027709300,16.8900297700,A
69,"RONJ73","Rondo Nowaka-Jeziorańskiego",52.4033902600,16.8889925700,A
70,"RONJ41","Rondo Nowaka-Jeziorańskiego",52.4023512573,16.8882176253,A
71,"RONJ74","Rondo Nowaka-Jeziorańskiego",52.4018848800,16.8891387700,A
72,"WOJS41","Wojskowa",52.4034107400,16.8924793200,A
73,"OSTR42","Ostroroga",52.4003363100,16.8815419200,A
74,"OSTR41","Ostroroga",52.4006241700,16.8823444000,A
75,"GROC41","Grochowska",52.3989629500,16.8758472200,A
76,"GROC42","Grochowska",52.3988983700,16.8760071400,A
77,"DRZE42","Drzewieckiego",52.3965900200,16.8668666900,A
78,"DRZE41","Drzewieckiego",52.3968382200,16.8675472100,A
79,"INEA42","INEA Stadion",52.3953542600,16.8623584000,A
80,"INEA41","INEA Stadion",52.3957224800,16.8632981200,A
81,"WEGO41","Węgorka",52.3920000000,16.8578300000,A
82,"WEGO42","Węgorka",52.3923300000,16.8580000000,A
83,"MATE41","Matejki",52.4057875800,16.9009328700,A
84,"BALT71","Bałtyk",52.4065890000,16.9110520000,A
85,"BALT42","Bałtyk",52.4065000000,16.9110600000,A
86,"MODW41","Most Dworcowy",52.4040015200,16.9110290500,A
87,"MODW42","Most Dworcowy",52.4038694800,16.9111204500,A
88,"DWZA71","Dworzec Zachodni",52.4017177600,16.9088064600,A
89,"DWZA72","Dworzec Zachodni",52.4017716400,16.9090824300,A
90,"PAWI71","Park Wilsona",52.3982419000,16.9031573100,A
91,"PAWI72","Park Wilsona",52.3971074100,16.9020603600,A
92,"RYLA71","Rynek Łazarski",52.3939634477,16.8985036470,A
93,"RYLA72","Rynek Łazarski",52.3944540100,16.8991462700,A
94,"GLHE44","Głogowska/Hetmańska",52.3897983100,16.8949471800,A
95,"GLHE43","Głogowska/Hetmańska",52.3899860700,16.8946848200,A
96,"GLHE71","Głogowska/Hetmańska",52.3905273700,16.8944754200,A
97,"GLHE45","Głogowska/Hetmańska",52.3903874400,16.8935347900,A
98,"GLHE06","Głogowska/Hetmańska",52.3902737400,16.8935651400,A
99,"ARCI42","Arciszewskiego",52.3926985000,16.8869293500,A
100,"ARCI41","Arciszewskiego",52.3928844400,16.8867070100,A
101,"AREN41","Arena",52.3972781800,16.8883695100,A
102,"AREN42","Arena",52.3977717600,16.8884247200,A
103,"KOLE42","Kolejowa",52.3870352600,16.9028994200,A
104,"KOLE41","Kolejowa",52.3871894000,16.9027620200,A
105,"TRAU44","Traugutta",52.3853237900,16.9138239700,A
106,"TRAU43","Traugutta",52.3847652100,16.9151159000,A
107,"KOSI71","Kosińskiego",52.3893013500,16.9182392900,A
108,"KOSI72","Kosińskiego",52.3894819500,16.9187176400,A
109,"ROZA42","Różana",52.3969310600,16.9249166900,A
110,"ROZA41","Różana",52.3965092000,16.9245683000,A
111,"SWCZ72","Św. Czesława",52.3975813800,16.9213722500,A
112,"SWCZ71","Św. Czesława",52.3965130000,16.9212750700,A
113,"POLW42","Półwiejska",52.3999200000,16.9281600000,A
114,"POLW41","Półwiejska",52.3999700000,16.9279200000,A
115,"WIER42","Wierzbięcice",52.4017301500,16.9209242000,A
116,"WIER41","Wierzbięcice",52.4019271300,16.9205211600,A
117,"FRRY41","Fredry",52.4093200000,16.9192700000,A
118,"FRRY42","Fredry",52.4094800000,16.9184700000,A
119,"PLWO41","Pl. Wolności",52.4079231500,16.9258694600,A
120,"MRCI71","Marcinkowskiego",52.4064212100,16.9284599000,A
121,"MRCI72","Marcinkowskiego",52.4073055900,16.9288885500,A
122,"WROC71","Wrocławska",52.4055683200,16.9321353600,A
123,"WROC72","Wrocławska",52.4056098100,16.9323084800,A
124,"PLRA42","Pl. Ratajskiego",52.4095986000,16.9239237500,A
125,"PLRA41","Pl. Ratajskiego",52.4095816900,16.9241997100,A
126,"PLWI42","Pl. Wielkopolski",52.4103531800,16.9308266000,A
127,"PLWI41","Pl. Wielkopolski",52.4103158800,16.9310187000,A
128,"MAGA41","Małe Garbary",52.4107493300,16.9374709200,A
129,"MAGA42","Małe Garbary",52.4108894900,16.9372306700,A
130,"KATE42","Katedra",52.4100987400,16.9471314700,A
131,"KATE41","Katedra",52.4100296800,16.9473154100,A
132,"ROSR41","Rondo Śródka",52.4100886700,16.9557905900,A
133,"ROSR42","Rondo Śródka",52.4102429400,16.9556183400,A
134,"ROSR43","Rondo Śródka",52.4095338300,16.9562091400,A
135,"ROSR44","Rondo Śródka",52.4095004300,16.9564208700,A
136,"ROSR45","Rondo Śródka",52.4098738000,16.9577923900,A
137,"ROSR46","Rondo Śródka",52.4099513800,16.9581012000,A
138,"ROSR47","Rondo Śródka",52.4105194500,16.9573420600,A
139,"ZAWA42","Zawady",52.4136466034,16.9581832333,A
140,"SWMI41","Św. Michała",52.4090145800,16.9623295000,A
141,"SWMI42","Św. Michała",52.4091737200,16.9619320100,A
142,"TERM42","Termalna",52.4091574800,16.9721856000,A
143,"TERM41","Termalna",52.4090358700,16.9722628600,A
144,"KRAN42","Krańcowa",52.4094277500,16.9810464800,A
145,"KRAN41","Krańcowa",52.4093202300,16.9812458100,A
146,"LOMZ42","Łomżyńska",52.4096310300,16.9851960400,A
147,"LOMZ41","Łomżyńska",52.4095056700,16.9853441700,A
148,"PUST42","Pusta",52.4099464000,16.9952376800,A
149,"PUST41","Pusta",52.4098425300,16.9955514200,A
150,"MILO42","Miłostowo",52.4101993000,17.0025350800,A
151,"MILO41","Miłostowo",52.4096098600,17.0029011200,A
152,"BAKA41","Baraniaka",52.4039501500,16.9541778000,A
153,"BAKA42","Baraniaka",52.4037693100,16.9543871300,A
154,"RRAT42","Rondo Rataje",52.3959887100,16.9490736500,A
155,"RRAT43","Rondo Rataje",52.3965069800,16.9507955500,A
156,"RRAT44","Rondo Rataje",52.3948816400,16.9500063500,A
157,"RRAT41","Rondo Rataje",52.3961740600,16.9488220600,A
158,"KORN41","Kórnicka",52.3987998700,16.9520989000,A
159,"KORN42","Kórnicka",52.3987724600,16.9522537500,A
160,"KORN43","Kórnicka",52.3990164300,16.9534845600,A
161,"KORN44","Kórnicka",52.3991553500,16.9533801200,A
162,"KORN45","Kórnicka",52.3998253300,16.9528595100,A
163,"PP71","Politechnika",52.4005864300,16.9487672600,A
164,"PP72","Politechnika",52.4007011200,16.9487645300,A
165,"PLBE71","Pl. Bernardyński",52.4043220400,16.9370106900,A
166,"PLBE72","Pl. Bernardyński",52.4044339000,16.9367738700,A
167,"PLWL41","Pl. Wiosny Ludów",52.4050400000,16.9317400000,A
168,"PLWL42","Pl. Wiosny Ludów",52.4051500000,16.9314500000,A
169,"LAKO41","Łąkowa",52.4019500000,16.9342900000,A
170,"LAKO42","Łąkowa",52.4021200000,16.9341700000,A
171,"AWF42","AWF",52.3998200000,16.9355700000,A
172,"AWF41","AWF",52.3992400000,16.9343000000,A
173,"AWF73","AWF",52.3990100000,16.9360200000,A
174,"GWAR41","Gwarna",52.4073590000,16.9211080000,A
175,"SERA42","Serafitek",52.3969309500,16.9457055500,A
176,"SERA41","Serafitek",52.3971256800,16.9445062800,A
177,"WIOS41","Wioślarska",52.3930049600,16.9486688200,A
178,"WIOS42","Wioślarska",52.3930340200,16.9488577900,A
179,"OPIA41","Os. Piastowskie",52.3903419900,16.9471468100,A
180,"OPIA42","Os. Piastowskie",52.3899918400,16.9471448300,A
181,"ORZE41","Os. Rzeczypospolitej",52.3853846900,16.9448386200,A
182,"ORZE42","Os. Rzeczypospolitej",52.3854184000,16.9450054200,A
183,"HEWI42","Hetmańska Wiadukt",52.3826620500,16.9294650500,A
184,"HEWI41","Hetmańska Wiadukt",52.3827743900,16.9292470600,A
185,"TRAU41","Traugutta",52.3846407200,16.9140023000,A
186,"TRAU42","Traugutta",52.3846996100,16.9142178600,A
187,"ROLN42","Rolna",52.3839405700,16.9183777900,A
188,"ROLN41","Rolna",52.3840706900,16.9181281100,A
189,"HCP41","HCP",52.3824324900,16.9119498800,A
190,"WSPO41","Wspólna",52.3777846200,16.9076140700,A
191,"WSPO42","Wspólna",52.3772857100,16.9074117500,A
192,"DEEC41","Dębiec",52.3728856000,16.9031857800,A
193,"DEEC42","Dębiec",52.3730591500,16.9038313800,A
194,"STOM41","Stomil",52.3765038800,16.9402608900,A
195,"STOM43","Stomil",52.3766108300,16.9407227900,A
196,"STOM42","Stomil",52.3760523200,16.9399538100,A
197,"BYST41","Bystra",52.3709991833,16.9345268592,A
198,"BYST42","Bystra",52.3714098300,16.9349624900,A
199,"STAR41","Starołęka",52.3684353700,16.9316765000,A
200,"STAR42","Starołęka",52.3685595700,16.9323682800,A
203,"Z I41","Żegrze I",52.3789806400,16.9611208400,A
204,"Z I42","Żegrze I",52.3789265600,16.9614602200,A
205,"Z II41","Żegrze II",52.3807026800,16.9659212900,A
206,"Z II42","Żegrze II",52.3807152400,16.9661947200,A
207,"ZIII41","Żegrze III",52.3832832000,16.9691011900,A
208,"ZIII42","Żegrze III",52.3833064700,16.9693135900,A
209,"OCZ41","Os. Czecha",52.3861726200,16.9754798600,A
210,"OCZ42","Os. Czecha",52.3861128400,16.9756493300,A
211,"OSLE41","Os. Lecha",52.3898114100,16.9776571100,A
212,"OSLE42","Os. Lecha",52.3900634300,16.9778299400,A
213,"PIAR41","Piaśnicka/Rynek",52.3876647854,16.9824741827,A
214,"PIAR42","Piaśnicka/Rynek",52.3877999592,16.9820609709,A
215,"PK41","Piaśnicka/Kurlandzka",52.3850783790,16.9874179664,A
216,"PK42","Piaśnicka/Kurlandzka",52.3852315850,16.9871966030,A
217,"SZWE41","Szwedzka",52.3821058400,16.9908248300,A
218,"SZWE42","Szwedzka",52.3821217700,16.9909330100,A
219,"SZWA42","Szwajcarska",52.3825556800,16.9982315400,A
220,"SZWA41","Szwajcarska",52.3824818500,16.9982370300,A
221,"FRWO42","Franowo",52.3816632800,17.0014708200,A
222,"OSTY41","Os. Tysiąclecia",52.3922581500,16.9722808200,A
223,"OSTY42","Os. Tysiąclecia",52.3923968200,16.9720870200,A
224,"POKA41","Polanka",52.3960358100,16.9636800500,A
225,"POKA42","Polanka",52.3961561400,16.9637254900,A
226,"HCP42","HCP",52.3815242000,16.9113663400,A
227,"RYWI71","Rynek Wildecki",52.3937515400,16.9213103500,A
228,"RYWI72","Rynek Wildecki",52.3943930700,16.9214835100,A
229,"RYWI43","Rynek Wildecki",52.3938791400,16.9219171400,A
230,"RYWI44","Rynek Wildecki",52.3941049700,16.9224455900,A
231,"RSTA45","Rondo Starołęka",52.3793126100,16.9426679000,A
232,"RSTA46","Rondo Starołęka",52.3795324100,16.9429377900,A
233,"RSTA41","Rondo Starołęka",52.3810631200,16.9433080300,A
234,"RSTA42","Rondo Starołęka",52.3810055800,16.9435005400,A
235,"RSTA44","Rondo Starołęka",52.3803896900,16.9422208600,A
236,"RSTA43","Rondo Starołęka",52.3805416700,16.9421001900,A
239,"MORO71","Most Św. Rocha",52.4026611500,16.9423726100,A
240,"MORO72","Most Św. Rocha",52.4027711600,16.9422831200,A
241,"TRAU45","Traugutta",52.3856225400,16.9148690100,A
243,"CHSZK02","Chludowo/Szkoła",52.5561078600,16.8443741700,C
244,"CHRYN02","Chludowo/Rynek",52.5552510800,16.8493123200,C
245,"CHKOS02","Chludowo/Kościół",52.5574263100,16.8454754500,C
246,"CHTYS01","Chludowo/Tysiąclecia",52.5593526200,16.8384256000,C
247,"CHTYS02","Chludowo/Tysiąclecia",52.5594717900,16.8382236600,C
248,"CHWAR02","Chludowo/Wargowska",52.5600436400,16.8321087600,C
249,"CHWAR01","Chludowo/Wargowska",52.5600632600,16.8342824400,C
250,"CHSTA01","Chludowo/Stacja",52.5599405900,16.8271220300,C
251,"CHSTA02","Chludowo/Stacja",52.5600370600,16.8263996400,C
252,"CHNAT02","Chludowo/Nad Torem",52.5604177800,16.8196280500,C
253,"CHNAT01","Chludowo/Nad Torem",52.5602843600,16.8210855900,C
254,"ZIWSP01","Zielątkowo/Wspólna",52.5605640700,16.8126771500,C
255,"ZIWSP02","Zielątkowo/Wspólna",52.5606240800,16.8127820000,C
256,"ZIPOG01","Zielątkowo/Pogodna",52.5600237900,16.8069706400,C
257,"ZIPOG02","Zielątkowo/Pogodna",52.5598768500,16.8048330200,C
258,"ZIOSP02","Zielątkowo/OSP",52.5599872100,16.7977223800,C
259,"ZIOSP01","Zielątkowo/OSP",52.5605177300,16.7978700900,C
260,"ZISWI02","Zielątkowo/Świerkowa",52.5538325900,16.7978270700,C
261,"ZISWI01","Zielątkowo/Świerkowa",52.5544832400,16.7979004100,C
262,"ZILAS02","Zielątkowo/Las",52.5462284100,16.8001455900,C
263,"ZILAS01","Zielątkowo/Las",52.5463516400,16.8000753000,C
264,"GOPRO01","Golęczewo/Promienista",52.5371394900,16.8116125400,C
265,"GOPRO02","Golęczewo/Promienista",52.5372995800,16.8109521500,C
266,"GOSZK02","Golęczewo/Szkoła",52.5350047900,16.8195953300,C
267,"GOSZK01","Golęczewo/Szkoła",52.5350996600,16.8190061700,C
268,"GOSTA02","Golęczewo/Stacja",52.5349678600,16.8268641000,C
269,"GOSTA01","Golęczewo/Stacja",52.5352214100,16.8254695100,C
270,"GOOBO01","Golęczewo/Obornicka",52.5354452900,16.8346253700,C
271,"GOOBO02","Golęczewo/Obornicka",52.5350930700,16.8354304500,C
272,"ZOSOB02","Złotkowo/Sobocka",52.5131390900,16.8354751900,B
273,"ZOSOB01","Złotkowo/Sobocka",52.5132079000,16.8354985600,B
274,"ZOWIE02","Złotkowo/Wieś",52.5115741800,16.8391927100,B
275,"ZOWIE01","Złotkowo/Wieś",52.5114700600,16.8395369200,B
276,"ZOCED02","Złotkowo/Cedrowa",52.5088791200,16.8369692000,B
277,"ZOCED01","Złotkowo/Cedrowa",52.5080470900,16.8357042100,B
278,"ZOZYT02","Złotkowo/Żytnia",52.5012182000,16.8372413600,B
279,"ZOZYT01","Złotkowo/Żytnia",52.5021057200,16.8370466500,B
280,"ZLPAW01","Złotniki/Pawłowicka",52.4976979800,16.8398987000,B
281,"ZLPAW02","Złotniki/Pawłowicka",52.4981670100,16.8391154200,B
282,"ZLLAG02","Złotniki/Łagiewnicka",52.4914781500,16.8466062100,B
283,"ZLLAG01","Złotniki/Łagiewnicka",52.4921588600,16.8460696500,B
284,"ZLZIE01","Złotniki/Zielona",52.4920706700,16.8420290300,B
285,"ZLZIE02","Złotniki/Zielona",52.4916171612,16.8410081800,B
286,"ZLWIE01","Złotniki/Wieś",52.4867062600,16.8311198800,B
291,"ZLZLO02","Złotniki/Złotnicka",52.4856637100,16.8546857500,B
292,"ZLZLO03","Złotniki/Złotnicka",52.4866893800,16.8557331300,B
293,"JENEK02","Jelonek/Nektarowa",52.4826130400,16.8602369300,B
294,"JENEK01","Jelonek/Nektarowa",52.4832714600,16.8592365100,B
295,"ZLGRZ02","Złotniki/Os. Grzybowe",52.4797848400,16.8584920500,B
297,"ZLZLO01","Złotniki/Złotnicka",52.4868397800,16.8534343900,B
298,"SLKON02","Suchy Las/Konwaliowa",52.4780036366,16.8696378530,B
299,"SLKON01","Suchy Las/Konwaliowa",52.4784712780,16.8687966719,B
300,"SLSZK02","Suchy Las/Szkoła",52.4753299200,16.8735462100,B
301,"SLSZK01","Suchy Las/Szkoła",52.4763622500,16.8722816600,B
302,"SLKOS01","Suchy Las/Kościół",52.4731420800,16.8772196700,B
303,"SLKOS03","Suchy Las/Kościół",52.4736033600,16.8782179000,B
304,"SLOSZ02","Suchy Las/Os. Szafirowe",52.4708894787,16.8753490300,B
305,"SLKOS02","Suchy Las/Kościół",52.4723317000,16.8780680300,B
306,"SLNWR02","Suchy Las/Nowy Rynek",52.4750612400,16.8791538900,B
307,"SLNWR01","Suchy Las/Nowy Rynek",52.4752666000,16.8807941000,B
308,"SLSTR02","Suchy Las/Strażacka",52.4750086700,16.8851559500,B
309,"SLSTR01","Suchy Las/Strażacka",52.4751292700,16.8836674700,B
310,"SLLAK01","Suchy Las/Łąkowa",52.4811305700,16.8790950300,B
311,"SLLAK02","Suchy Las/Łąkowa",52.4805539000,16.8790552200,B
312,"SLDZI01","Suchy Las/Działki",52.4866868400,16.8796299900,B
313,"SLKRA02","Suchy Las/Krańcowa",52.4813876500,16.8864448500,B
314,"SLKRA01","Suchy Las/Krańcowa",52.4813058000,16.8860568100,B
315,"MORA02","Morasko",52.4892681800,16.9054379000,A
316,"MOKO02","Morasko Kościół",52.4887599500,16.9084893200,A
317,"MOKO01","Morasko Kościół",52.4884915500,16.9089182200,A
318,"MOCM02","Morasko Cmentarz",52.4844634100,16.9100089000,A
319,"MOCM01","Morasko Cmentarz",52.4846278500,16.9101536300,A
320,"SZKL02","Szklarniowa",52.4771069700,16.9062235400,A
321,"SZKL01","Szklarniowa",52.4775378300,16.9066457200,A
322,"DESZ02","Deszczowa",52.4716679700,16.9019816600,A
323,"DESZ01","Deszczowa",52.4719328406,16.9023406135,A
324,"SLPRZ01","Suchy Las/Os. Przylesie",52.4734913200,16.8977641800,B
325,"SLPRZ02","Suchy Las/Os. Przylesie",52.4733187600,16.8979097800,B
326,"SLSPR01","Suchy Las/Sprzeczna",52.4746912800,16.8935577600,B
327,"SLSPR02","Suchy Las/Sprzeczna",52.4746265600,16.8936914100,B
328,"SLPRO01","Suchy Las/Promienista",52.4783970400,16.8605156100,B
329,"SLPRO02","Suchy Las/Promienista",52.4781626300,16.8604308500,B
330,"SLBOR02","Suchy Las/Borówkowa",52.4743723400,16.8626849100,B
331,"SLBOR01","Suchy Las/Borówkowa",52.4736028600,16.8637106000,B
332,"SLJAG01","Suchy Las/Os. Jagodowe",52.4712284700,16.8684930200,B
333,"SLJAG02","Suchy Las/Os. Jagodowe",52.4716052000,16.8673430300,B
334,"SLPOZ02","Suchy Las/Os. Poziomkowe",52.4692361000,16.8730062900,B
335,"SLPOZ01","Suchy Las/Os. Poziomkowe",52.4693847100,16.8728784300,B
336,"SLWIA01","Suchy Las/Wiadukt",52.4694683081,16.8825359634,B
337,"SLWIA02","Suchy Las/Wiadukt",52.4683773500,16.8841298500,B
338,"LENZ01","Łęgowskiego I",52.4634171200,16.8886480300,A
339,"LENZ02","Łęgowskiego I",52.4631964400,16.8893035600,A
340,"SS I02","Szarych Szeregów I",52.4618071800,16.8850988000,A
341,"SS I01","Szarych Szeregów I",52.4623720600,16.8860637900,A
342,"SZSZ01","Szarych Szeregów",52.4600260500,16.8821202800,A
343,"SZSZ02","Szarych Szeregów",52.4591456900,16.8803907400,A
344,"BIAL02","Białczańska",52.4570019700,16.8793614500,A
345,"BIAL01","Białczańska",52.4573127500,16.8791045800,A
346,"BIAL03","Białczańska",52.4578877600,16.8781556200,A
347,"KOSO02","Kosowska",52.4560162800,16.8773008700,A
348,"KOSO01","Kosowska",52.4559956000,16.8774373600,A
349,"MORS01","Morszyńska",52.4579201500,16.8727657600,A
350,"MORS02","Morszyńska",52.4582613800,16.8719060700,A
351,"PODO03","Podolany",52.4616032400,16.8664355000,A
352,"PODO04","Podolany",52.4613580400,16.8664274800,A
353,"PODO02","Podolany",52.4619623700,16.8667445600,A
354,"PODO01","Podolany",52.4621111700,16.8666883700,A
355,"SUCH02","Sucholeska",52.4623384300,16.8688846200,A
356,"SUCH01","Sucholeska",52.4625733300,16.8685713400,A
357,"SYPU02","Synów Pułku",52.4598768800,16.8743058000,A
358,"SYPU01","Synów Pułku",52.4605713300,16.8730878900,A
359,"LEGO01","Łęgowskiego",52.4608925200,16.8931590400,A
360,"LEGO02","Łęgowskiego",52.4609955600,16.8927830700,A
361,"HULE02","Hulewiczów",52.4558212400,16.8984131000,A
362,"HULE01","Hulewiczów",52.4565911000,16.8979252100,A
363,"OJLY03","Os. Jagiełły",52.4539679300,16.9038243200,A
364,"STRO02","Stróżyńskiego",52.4517175200,16.9038872100,A
365,"OJLY02","Os. Jagiełły",52.4535995700,16.9073589300,A
366,"OJLY01","Os. Jagiełły",52.4547267200,16.9045831000,A
367,"WRTV02","Wieża RTV",52.4573215300,16.9041604300,A
368,"WRTV01","Wieża RTV",52.4581533000,16.9044244300,A
369,"OM I01","Os. Marysieńki I",52.4604586800,16.9039205700,A
370,"OM I02","Os. Marysieńki I",52.4619896300,16.9035075400,A
371,"OMII01","Os. Marysieńki II",52.4636457600,16.9037033500,A
372,"OMII02","Os. Marysieńki II",52.4654699400,16.9047405300,A
373,"MAGO01","Mateckiego",52.4612617400,16.8978341800,A
374,"MAGO02","Mateckiego",52.4623275700,16.8984868900,A
375,"WIET01","Wietrzna",52.4687448900,16.9009097300,A
376,"WIET02","Wietrzna",52.4683871600,16.9005959200,A
377,"SOII01","Os. Sobieskiego II",52.4657475600,16.9065992000,A
378,"SO I02","Os. Sobieskiego I",52.4661330000,16.9102135000,A
379,"SO I01","Os. Sobieskiego I",52.4660132600,16.9110653900,A
380,"SOB21","Os. Sobieskiego",52.4650301900,16.9171600600,A
381,"SOB30","Os. Sobieskiego",52.4650545300,16.9165060800,A
382,"SOB01","Os. Sobieskiego",52.4636932061,16.9164340865,A
383,"SZLI02","Szeligowskiego",52.4625870400,16.9176231500,A
384,"SZLI01","Szeligowskiego",52.4627051200,16.9179703700,A
385,"SZYM08","Szymanowskiego",52.4602038200,16.9158013600,A
386,"SZYM02","Szymanowskiego",52.4601525700,16.9170216000,A
387,"SZYM01","Szymanowskiego",52.4605915400,16.9170346000,A
388,"SZYM04","Szymanowskiego",52.4602173400,16.9191827800,A
389,"OPIE02","Opieńskiego",52.4599041300,16.9217350800,A
390,"OPIE01","Opieńskiego",52.4600337200,16.9232562400,A
391,"OSBA03","Os. Batorego II",52.4598635700,16.9274543900,A
392,"OSBA04","Os. Batorego II",52.4595441500,16.9266402500,A
393,"OSBA02","Os. Batorego II",52.4605144200,16.9286422400,A
394,"OSBA01","Os. Batorego II",52.4607028300,16.9289892400,A
395,"OSBI02","Os. Batorego I",52.4564226900,16.9273779300,A
396,"OSBI01","Os. Batorego I",52.4570192800,16.9276707800,A
397,"STRU02","Strugarka",52.4532731100,16.9274707300,A
398,"STRU01","Strugarka",52.4541267700,16.9276875100,A
399,"STOI02","Stoińskiego",52.4502145200,16.9271609000,A
400,"STOI04","Stoińskiego",52.4507071500,16.9287427700,A
401,"STOI01","Stoińskiego",52.4517639100,16.9276784100,A
402,"KURP06","Kurpińskiego",52.4506116000,16.9217926900,A
403,"KURP02","Kurpińskiego",52.4505247900,16.9195517600,A
404,"KURP01","Kurpińskiego",52.4509611200,16.9194839200,A
405,"KURP03","Kurpińskiego",52.4513937900,16.9205054900,A
406,"OSCH02","Os. Chrobrego",52.4515616700,16.9119593900,A
407,"OSCH01","Os. Chrobrego",52.4523531300,16.9119273400,A
408,"WOKI01","Wojciechowskiego",52.4506791100,16.9142883900,A
409,"WOKI02","Wojciechowskiego",52.4506105500,16.9151571400,A
410,"SZNZ01","Szeligowskiego I",52.4546730700,16.9192401900,A
411,"OSZY01","Os. Zygmunta Starego",52.4601935935,16.9096308498,A
412,"OSZY02","Os. Zygmunta Starego",52.4602850600,16.9083573400,A
414,"UAMK02","UAM Kampus",52.4637778900,16.9305139300,A
415,"UAMK01","UAM Kampus",52.4640625100,16.9305030700,A
416,"ORP02","UAM Os. Różany Potok",52.4666531500,16.9417878300,A
417,"UAMG02","UAM Wydział Geografii",52.4653034743,16.9416104897,A
418,"UAMG01","UAM Wydział Geografii",52.4641879876,16.9410792174,A
419,"KRES03","Kresowa",52.4681807500,16.9459521800,A
420,"KRES02","Kresowa",52.4686397100,16.9474248100,A
421,"KRES01","Kresowa",52.4679525200,16.9476334300,A
422,"WDNZ02","Widłakowa",52.4725384800,16.9472832300,A
423,"WDNZ01","Widłakowa",52.4722248500,16.9474484300,A
424,"RUMA01","Rumiankowa",52.4750613500,16.9464343200,A
425,"RUMA02","Rumiankowa",52.4758266200,16.9462312300,A
426,"DUNZ01","Dziurawcowa",52.4789199600,16.9455025000,A
427,"DUNZ02","Dziurawcowa",52.4791813300,16.9451608900,A
428,"UMTA02","Umultowo",52.4813508200,16.9438533300,A
429,"UMTA01","Umultowo",52.4819694900,16.9436187200,A
430,"LOPI02","Łopianowa",52.4867720900,16.9424779000,A
431,"LOPI01","Łopianowa",52.4868020500,16.9426238300,A
432,"LUGO02","Os. Lubczykowa Góra",52.4892888700,16.9417493000,A
433,"LUGO01","Os. Lubczykowa Góra",52.4899311000,16.9417111700,A
434,"RA I02","Radojewo I",52.4967973400,16.9459751900,A
435,"RADO01","Radojewo",52.4976583300,16.9461884000,A
436,"RAII01","Radojewo II",52.4999651700,16.9400833200,A
437,"RAII02","Radojewo II",52.5003817200,16.9387436800,A
438,"BIMLY01","Biedrusko/Młyn",52.5148237600,16.9394120800,B
439,"BIMLY02","Biedrusko/Młyn",52.5150853900,16.9394324400,B
440,"BIJES01","Biedrusko/Jesionowa",52.5359212500,16.9434691900,B
441,"BIJES02","Biedrusko/Jesionowa",52.5363894500,16.9437250300,B
442,"BIJDW01","Biedrusko/Jednostka Wojskowa",52.5407511300,16.9446203400,B
443,"BIJDW02","Biedrusko/Jednostka Wojskowa",52.5403913300,16.9447178600,B
444,"BIPRK02","Biedrusko/Park",52.5451933400,16.9467181900,B
445,"MAPO02","Maków Polnych",52.4636005600,16.9477802100,A
446,"MAPO01","Maków Polnych",52.4635751200,16.9479684100,A
447,"BURY02","Burysława",52.4583754800,16.9466870000,A
448,"BURY01","Burysława",52.4587803100,16.9468127400,A
449,"BORI02","Boranta I",52.4566334300,16.9480038300,A
450,"BORA02","Boranta",52.4566864500,16.9521145400,A
451,"BORA01","Boranta",52.4565857324,16.9513652391,A
452,"BRON01","Bronisza",52.4554530500,16.9477161500,A
453,"BRON02","Bronisza",52.4535140500,16.9477138700,A
454,"RUBI01","Rubież",52.4507910400,16.9479123400,A
455,"RUBI02","Rubież",52.4489062700,16.9476013600,A
456,"OSLO01","Os. Łokietka I",52.4480726000,16.9437394000,A
457,"OSLO02","Os. Łokietka I",52.4481196400,16.9428784000,A
458,"KULY01","Kupały",52.4507628200,16.9370899500,A
459,"KULY02","Kupały",52.4511591700,16.9357661600,A
460,"OLOK02","Os. Łokietka",52.4520237492,16.9346006470,A
461,"LUCK01","Łużycka",52.4516680900,16.9333852300,A
462,"SARM01","Sarmacka",52.4470172200,16.9277737600,A
463,"SARM02","Sarmacka",52.4456930300,16.9279319400,A
464,"UMUL05","Umultowska",52.4424558100,16.9295289900,A
465,"UMUL02","Umultowska",52.4427139100,16.9290799200,A
466,"UMUL03","Umultowska",52.4433248000,16.9282241200,A
467,"UMUL01","Umultowska",52.4442552500,16.9288232700,A
468,"UMUL04","Umultowska",52.4430685600,16.9303892100,A
469,"ESTO02","Estońska",52.4425768100,16.9375356900,A
470,"ESTO01","Estońska",52.4428183200,16.9362230400,A
471,"OWW02","Os. Wichrowe Wzgórze",52.4412357000,16.9407797000,A
472,"OWW01","Os. Wichrowe Wzgórze",52.4416835800,16.9410835100,A
473,"NAWI02","Naramowicka",52.4400103500,16.9469135500,A
474,"OKOS01","Os. Kosmonautów",52.4384400500,16.9408119500,A
475,"OKOS02","Os. Kosmonautów",52.4383750700,16.9404025000,A
476,"NAWI01","Naramowicka",52.4404879500,16.9469715200,A
477,"WLOD02","Włodarska",52.4354973500,16.9470342300,A
478,"WLOD01","Włodarska",52.4363640300,16.9474454600,A
479,"NARA02","Naramowice",52.4444631000,16.9460185100,A
480,"NARA01","Naramowice",52.4448718600,16.9465224400,A
481,"WIML02","Wilczy Młyn",52.4372446300,16.9532701500,A
482,"WIML01","Wilczy Młyn",52.4380629200,16.9530740700,A
483,"WIII01","Wilczak II",52.4314715500,16.9517450500,A
484,"WIII02","Wilczak II",52.4309139700,16.9539992500,A
485,"NASE04","Naramowicka/Serbska",52.4313437400,16.9475532400,A
486,"NASE02","Naramowicka/Serbska",52.4313397800,16.9459041100,A
487,"NASE01","Naramowicka/Serbska",52.4324932200,16.9466084200,A
488,"NASE03","Naramowicka/Serbska",52.4324866200,16.9455849500,A
489,"ROSO04","Rondo Solidarności",52.4341511600,16.9403435800,A
490,"ROSO03","Rondo Solidarności",52.4352952900,16.9372831400,A
491,"ROSO02","Rondo Solidarności",52.4338715700,16.9373713900,A
492,"ROSO01","Rondo Solidarności",52.4356201400,16.9392529900,A
493,"POLA02","Połabska",52.4352475700,16.9312698300,A
494,"POLA03","Połabska",52.4361636300,16.9308478800,A
495,"POLA01","Połabska",52.4357412600,16.9293871500,A
496,"PSAM02","Połabska SAM",52.4390781600,16.9303707900,A
497,"PSAM01","Połabska SAM",52.4385179000,16.9310719500,A
498,"SUSZ02","Suszki",52.4460798400,16.9140549500,A
499,"SUSZ01","Suszki",52.4468964900,16.9140589000,A
500,"WLOA02","Włościańska",52.4441993600,16.9133433500,A
501,"WLOA01","Włościańska",52.4446345900,16.9139879900,A
502,"PIAT04","Piątkowska",52.4412872773,16.9118297267,A
503,"PIAT02","Piątkowska",52.4414305600,16.9122533500,A
504,"PIAT01","Piątkowska",52.4416282200,16.9125521600,A
505,"PIAT03","Piątkowska",52.4408075300,16.9124401700,A
506,"TROJ01","Trójpole",52.4382450600,16.9117682600,A
507,"TROJ02","Trójpole",52.4366036600,16.9118021400,A
508,"LUSZ01","Lutycka Szpital",52.4412379000,16.9072570100,A
509,"LUSZ02","Lutycka Szpital",52.4403618500,16.9081700400,A
510,"ROOB02","Rondo Obornicka",52.4431113200,16.9077341600,A
511,"ROOB01","Rondo Obornicka",52.4426762100,16.9067130500,A
512,"ST I02","Strzeszyńska I",52.4437804400,16.9030445900,A
513,"ST I01","Strzeszyńska I",52.4437428300,16.9033924900,A
514,"OBOR01","Obornicka",52.4455276400,16.9085929200,A
515,"OBOR02","Obornicka",52.4461147400,16.9080676400,A
516,"RZEP02","Rzepeckiej",52.4549770000,16.8826823700,A
517,"RZEP01","Rzepeckiej",52.4552832200,16.8824574500,A
518,"TULO02","Tułodzieckiej",52.4519531800,16.8876748900,A
519,"TULO01","Tułodzieckiej",52.4524763700,16.8871356900,A
522,"DRUS02","Druskienicka",52.4446149700,16.8877859600,A
523,"DRUS01","Druskienicka",52.4447947700,16.8880587000,A
524,"TRUS01","Truskawiecka",52.4423864600,16.8867968800,A
525,"TRUS02","Truskawiecka",52.4428486200,16.8867695400,A
526,"SZKA02","Szczawnicka",52.4387345300,16.8899214300,A
527,"SZKA01","Szczawnicka",52.4387452000,16.8902098900,A
528,"STII01","Strzeszyńska II",52.4488588600,16.8952420300,A
529,"STII02","Strzeszyńska II",52.4489689900,16.8945655300,A
530,"STNZ02","Strzeszyńska",52.4453455800,16.9005296100,A
531,"STNZ01","Strzeszyńska",52.4458947900,16.9000009700,A
532,"LUII01","Lutycka II",52.4385654600,16.8943024500,A
533,"LUII02","Lutycka II",52.4387976400,16.8957417100,A
534,"LU I01","Lutycka I",52.4408641700,16.9009890200,A
535,"LU I02","Lutycka I",52.4408859400,16.9015685900,A
536,"DOSZ02","Dojazd Szpital",52.4379478400,16.9044367900,A
537,"DOZD01","Dojazd",52.4356658500,16.9032891000,A
538,"DOZD02","Dojazd",52.4365693300,16.9011971400,A
539,"PDNZ02","Podolańska",52.4357155201,16.8871403232,A
540,"PDNZ01","Podolańska",52.4362556243,16.8871403232,A
541,"GOLE02","Golęcin",52.4303575800,16.8914781200,A
542,"GOLE01","Golęcin",52.4306289600,16.8910834100,A
543,"GOKA02","Golęcińska",52.4314840500,16.8846367300,A
544,"GOKA01","Golęcińska",52.4322404800,16.8843525500,A
545,"LINZ01","Literacka I",52.4403413400,16.8717297600,A
546,"LINZ02","Literacka I",52.4402178800,16.8716956700,A
547,"HEZJ02","Hezjoda",52.4447774100,16.8739612700,A
548,"HEZJ01","Hezjoda",52.4453060500,16.8744765100,A
549,"SAFO01","Safony",52.4446651000,16.8808748200,A
550,"LITE02","Literacka",52.4468104200,16.8741145500,A
551,"LITE01","Literacka",52.4468834300,16.8742949400,A
552,"TOLT02","Tołstoja",52.4499525500,16.8705847400,A
553,"TOLT01","Tołstoja",52.4507937900,16.8698184400,A
554,"PUSA02","Puszkina",52.4527483700,16.8649292500,A
555,"PUSA21","Puszkina",52.4527436201,16.8650482508,A
556,"KODZ01","Koszalińska Działki",52.4408092500,16.8675299200,A
557,"KODZ02","Koszalińska Działki",52.4406722100,16.8677999100,A
558,"SNZ02","Strzeszyn I",52.4458905100,16.8570232100,A
559,"SNZ01","Strzeszyn I",52.4461675800,16.8570144500,A
560,"SZYN02","Strzeszyn",52.4519398500,16.8481863400,A
561,"SZYN04","Strzeszyn",52.4518608100,16.8488594500,A
562,"SZYN01","Strzeszyn",52.4521424700,16.8480803100,A
563,"SZYN21","Strzeszyn",52.4518353900,16.8489658700,A
564,"KRAJ02","Krajenecka",52.4547254800,16.8432035500,A
565,"KRAJ01","Krajenecka",52.4549867000,16.8429271500,A
566,"INMR01","Instytut MR",52.4557426400,16.8550097000,A
567,"INMR02","Instytut MR",52.4560162000,16.8556986500,A
568,"STEK01","Strzeszynek",52.4640133000,16.8285525700,A
569,"STEK02","Strzeszynek",52.4641401500,16.8280997100,A
570,"PSAR02","Psarskie",52.4732148200,16.8030259500,A
571,"PSAR01","Psarskie",52.4736903600,16.8033006500,A
572,"PSPK01","Psarskie Przejazd Kolejowy",52.4714238200,16.8019574200,A
573,"CHKA02","Chojnicka",52.4688093000,16.8012110300,A
574,"CHKA01","Chojnicka",52.4686961400,16.8013452100,A
575,"NJEZ02","Nad Jeziorem",52.4728173700,16.7949431100,A
576,"NJEZ01","Nad Jeziorem",52.4732931600,16.7943800500,A
577,"KIDW02","Kiekrz Dworzec",52.4750720300,16.7897244800,A
578,"KIDW01","Kiekrz Dworzec",52.4753158800,16.7893756500,A
579,"KIKO02","Kiekrz Kościół",52.4773571300,16.7842541400,A
580,"KIKO01","Kiekrz Kościół",52.4775653300,16.7838055800,A
581,"WIMO02","Wilków Morskich",52.4775368900,16.7800561100,A
582,"ADMI01","Admiralska",52.4751780000,16.7768486100,A
583,"ADMI02","Admiralska",52.4757478100,16.7774765600,A
584,"KIEK02","Kiekrz",52.4737051100,16.7744947100,A
585,"UZSZ01","Uzdrowiskowa Szpital",52.4641255700,16.8004320300,A
586,"UZSZ02","Uzdrowiskowa Szpital",52.4646400000,16.8003498300,A
587,"STOB02","Stobnicka",52.4534762600,16.8012951900,A
588,"STOB01","Stobnicka",52.4539974300,16.8010815400,A
589,"SLUP01","Słupska",52.4483028600,16.8043734200,A
590,"SLUP02","Słupska",52.4486133400,16.8041124700,A
591,"KRZY01","Krzyżowniki",52.4418011800,16.8075931300,A
592,"KRZY02","Krzyżowniki",52.4418361500,16.8074558100,A
593,"KRZY04","Krzyżowniki",52.4416695900,16.8073361700,A
594,"MIED01","Międzyzdrojska",52.4364244100,16.8089974300,A
595,"MIED02","Międzyzdrojska",52.4352223500,16.8088744400,A
596,"MIED03","Międzyzdrojska",52.4350769500,16.8096441800,A
597,"CZKA01","Człopska",52.4351845000,16.8156774100,A
598,"CZKA02","Człopska",52.4350452900,16.8138629800,A
599,"BRAN01","Braniewska",52.4352589000,16.8216492500,A
600,"BRAN02","Braniewska",52.4351872600,16.8231796800,A
601,"LUPO02","Łupowska",52.4352823800,16.8301995000,A
602,"LUPO01","Łupowska",52.4353853900,16.8300010700,A
603,"SMOC02","Smochowice",52.4309740800,16.8323331200,A
604,"SMOC01","Smochowice",52.4321195300,16.8323893000,A
605,"KOLO02","Kołobrzeska",52.4310730000,16.8385071200,A
606,"KOLO01","Kołobrzeska",52.4315211400,16.8384039700,A
607,"LEKA02","Leśnowolska",52.4316133300,16.8223032900,A
608,"LEKA01","Leśnowolska",52.4319771100,16.8222369900,A
609,"WICH02","Wichrowa",52.4315909200,16.8092375000,A
610,"WICH01","Wichrowa",52.4322530000,16.8100220200,A
611,"TATR02","Tatrzańska",52.4290282800,16.8485993900,A
612,"TATR01","Tatrzańska",52.4295369100,16.8477457600,A
613,"PILO02","Pilotów",52.4270388700,16.8561400300,A
614,"PILO01","Pilotów",52.4277183200,16.8544813100,A
615,"PLOT02","Przelot",52.4260131500,16.8598158400,A
616,"PLOT01","Przelot",52.4262619600,16.8599110000,A
617,"BUZA02","Bużańska",52.4234695100,16.8663402700,A
618,"BUZA01","Bużańska",52.4236316000,16.8668036700,A
619,"PONZ01","Polska",52.4186600000,16.8729303300,A
620,"OGDY01","Ogrody",52.4169067600,16.8818094600,A
621,"OGDY02","Ogrody",52.4169288400,16.8822457700,A
623,"OGDY04","Ogrody",52.4178847900,16.8810942800,A
624,"SZPI01","Szpitalna",52.4118975000,16.8772228500,A
625,"SZPI02","Szpitalna",52.4121991900,16.8769750800,A
626,"SZPI04","Szpitalna",52.4110533900,16.8777072800,A
627,"SZPI03","Szpitalna",52.4108285900,16.8803452600,A
628,"SWOB01","Swoboda",52.4117184500,16.8741687600,A
629,"SWOB02","Swoboda",52.4117809300,16.8724554100,A
630,"BUKI01","Bukowska I",52.4123649800,16.8684411400,A
631,"BUKI02","Bukowska I",52.4117817500,16.8691817400,A
632,"JASN02","Jasna",52.4118094600,16.8650660500,A
633,"JASN01","Jasna",52.4120368300,16.8635587600,A
634,"JASN03","Jasna",52.4106575600,16.8640171900,A
635,"ZGOR02","Zgorzelecka",52.4117833700,16.8583160600,A
636,"ZGOR01","Zgorzelecka",52.4120717800,16.8580344800,A
637,"LESK03","Leśnych Skrzatów",52.4115931000,16.8503329200,A
638,"LESK02","Leśnych Skrzatów",52.4120367500,16.8525645500,A
639,"LESK01","Leśnych Skrzatów",52.4124386400,16.8500791800,A
640,"FOED02","Folwark Edwardowo",52.4123307300,16.8463949300,A
641,"FOED01","Folwark Edwardowo",52.4125853000,16.8465094400,A
642,"KOPC02","Kopciuszka",52.4126148200,16.8391197900,A
643,"KOPC01","Kopciuszka",52.4129460500,16.8377082000,A
644,"ZLOT01","Złotowska",52.4132556400,16.8323753400,A
645,"ZLOT02","Złotowska",52.4129048700,16.8342091100,A
646,"MALE01","Malechowska",52.4120356800,16.8306214400,A
647,"MALE02","Malechowska",52.4117440800,16.8300521500,A
648,"OBA02","Os. Bajkowe",52.4099615400,16.8355428800,A
649,"OBA01","Os. Bajkowe",52.4105728500,16.8345881400,A
650,"WIEC02","Wieczorynki",52.4083118100,16.8410443600,A
651,"WIEC01","Wieczorynki",52.4086173800,16.8403438400,A
652,"BRZE02","Brzechwy",52.4077735600,16.8440425500,A
653,"BRZE01","Brzechwy",52.4081713900,16.8455874000,A
654,"EDWA02","Edwardowo",52.4093054100,16.8474360100,A
655,"EDWA01","Edwardowo",52.4094642300,16.8473731400,A
656,"PLL02","Port Lotniczy Ławica",52.4146372853,16.8267376162,A
657,"PLL04","Port Lotniczy Ławica",52.4132082400,16.8273624800,A
658,"PLL01","Port Lotniczy Ławica",52.4135124100,16.8260674400,A
659,"PERZ02","Perzycka",52.4118341400,16.8189917400,A
660,"LAWI02","Ławica",52.4097276800,16.8237694700,A
661,"LAWI01","Ławica",52.4095376500,16.8229507000,A
662,"OWCZ01","Owcza",52.4069715800,16.8189420200,A
663,"OWCZ02","Owcza",52.4063616300,16.8181857800,A
664,"ZLDZ01","Złotowska Działki",52.4014307700,16.8100223300,A
665,"ZLDZ02","Złotowska Działki",52.4016095000,16.8105267900,A
666,"MALW02","Malwowa",52.3977844500,16.8041007800,A
667,"MALW01","Malwowa",52.3968425900,16.8034918500,A
668,"MALW04","Malwowa",52.3971935000,16.8023155400,A
669,"SKKOS01","Skórzewo/Kościół",52.3906024707,16.7898141926,B
670,"SKOSM02","Skórzewo/Os. Makowe",52.3886978000,16.7827904100,B
671,"SKOSM01","Skórzewo/Os. Makowe",52.3895040000,16.7810874900,B
672,"SKGIM01","Skórzewo/Gimnazjum",52.3906001200,16.7780093800,B
673,"SKGIM02","Skórzewo/Gimnazjum",52.3907185500,16.7772333700,B
674,"DBWIL04","Dąbrowa/Leśna",52.3971368600,16.7549330500,C
675,"DBWIL01","Dąbrowa/Leśna",52.3974179800,16.7560146400,C
676,"DBWIL02","Dąbrowa/Leśna",52.3980953800,16.7535980600,C
677,"DBLES01","Dąbrowa/Poprzeczna",52.3925379000,16.7503689800,C
678,"DBLES02","Dąbrowa/Poprzeczna",52.3926187700,16.7505366800,C
679,"DKLAS01","Dąbrówka/Las",52.3865919900,16.7458051000,C
680,"DKLAS02","Dąbrówka/Las",52.3868636600,16.7458264800,C
681,"DKPAR01","Dąbrówka/Parkowa",52.3843408400,16.7438659300,C
682,"DKPAR02","Dąbrówka/Parkowa",52.3844889000,16.7440964600,C
683,"DKKAS02","Dąbrówka/Kasztanowa",52.3777388800,16.7432324600,C
684,"DKKAS01","Dąbrówka/Kasztanowa",52.3774399400,16.7428272300,C
685,"PANOW02","Palędzie/Nowa",52.3730021400,16.7386973700,C
686,"PANOW91","Palędzie/Nowa",52.3723335300,16.7379570600,C
687,"PAPAL02","Palędzie/Leśna",52.3695529000,16.7358967300,C
688,"PAPAL01","Palędzie/Leśna",52.3690806300,16.7357758500,C
689,"DPDOP02","Dopiewiec/",52.3599654400,16.7087657600,C
690,"DPDOP01","Dopiewiec/",52.3599545700,16.7091852100,C
691,"DPPRZ02","Dopiewiec/Przejazd Kolejowy",52.3594442900,16.6898690500,C
692,"DPPRZ01","Dopiewiec/Przejazd Kolejowy",52.3595712200,16.6915253900,C
693,"DOOSR02","Dopiewo/Ośrodek Zdrowia",52.3591720100,16.6837441500,C
694,"DOOSR01","Dopiewo/Ośrodek Zdrowia",52.3591770600,16.6825271300,C
695,"DOKOS02","Dopiewo/Kościół",52.3581242100,16.6767218800,C
696,"DOKOS01","Dopiewo/Kościół",52.3579512700,16.6763361100,C
697,"DODWK01","Dopiewo/Dworzec Kolejowy",52.3542555700,16.6787559800,C
698,"ZKZAC02","Zakrzewo/Zacisze",52.3900401000,16.7384438100,C
699,"ZKZAC01","Zakrzewo/Zacisze",52.3899850400,16.7388852200,C
700,"ZKSPO02","Zakrzewo/Sportowa",52.3928255100,16.7267028700,C
701,"ZKSPO01","Zakrzewo/Sportowa",52.3933213600,16.7258674700,C
702,"ZKSWI02","Zakrzewo/Świerkowa",52.3987123100,16.7160926900,C
703,"ZKSWI01","Zakrzewo/Świerkowa",52.3984719500,16.7163313800,C
704,"ZKBUK01","Zakrzewo/Bukowska",52.4049495700,16.7180501200,C
705,"ZKBUK02","Zakrzewo/Bukowska",52.4062222900,16.7194696000,C
706,"DBBUK01","Dąbrowa/Szkolna",52.4035842300,16.7401152300,C
707,"DBBUK02","Dąbrowa/Szkolna",52.4037507600,16.7398011500,C
708,"DBWIK01","Dąbrowa/Krótka",52.4008825100,16.7447766900,C
709,"DBWIK02","Dąbrowa/Krótka",52.4008751900,16.7446036500,C
710,"MANZ02","Malwowa I",52.3935661100,16.8076452700,A
711,"MANZ01","Malwowa I",52.3931377300,16.8080027600,A
712,"NAWA01","Nagietkowa",52.3888545000,16.8133637500,A
713,"NAWA02","Nagietkowa",52.3892622900,16.8130086800,A
714,"ZONK01","Żonkilowa",52.3861995800,16.8194270300,A
715,"ZONK02","Żonkilowa",52.3867901900,16.8184640300,A
716,"GERB01","Gerberowa",52.3853229400,16.8260002700,A
717,"GERB02","Gerberowa",52.3853953000,16.8246529000,A
719,"JUST03","Junikowo Stacja",52.3790511200,16.8263857600,A
720,"KWIA01","Os. Kwiatowe",52.3824107071,16.8321241268,A
721,"KWIA02","Os. Kwiatowe",52.3831046778,16.8314895516,A
722,"JUNI02","Junikowo",52.3836756200,16.8361174900,A
723,"JUNI30","Junikowo",52.3835469700,16.8335096200,A
724,"CMNA01","Cmentarna",52.3849693600,16.8390119400,A
725,"CMNA02","Cmentarna",52.3848173100,16.8394336800,A
726,"BUDZ02","Budziszyńska",52.3882810900,16.8492768200,A
727,"BUDZ01","Budziszyńska",52.3880865200,16.8490618300,A
728,"SMGO02","Smoluchowskiego",52.3901158738,16.8547031988,A
729,"SMGO01","Smoluchowskiego",52.3899536736,16.8534192908,A
730,"WEGO02","Węgorka",52.3919368500,16.8578373700,A
731,"WEGO01","Węgorka",52.3928442000,16.8585486500,A
732,"INEA05","INEA Stadion",52.3948915200,16.8613559400,A
733,"INEA04","INEA Stadion",52.3949771300,16.8620319900,A
734,"INEA01","INEA Stadion",52.3961310000,16.8624166100,A
735,"INEA02","INEA Stadion",52.3949161200,16.8630307900,A
736,"DRZE01","Drzewieckiego",52.3969736500,16.8675910400,A
737,"DRZE02","Drzewieckiego",52.3965305400,16.8671192400,A
738,"GROC01","Grochowska",52.3989882300,16.8755711400,A
739,"GROC02","Grochowska",52.3986418900,16.8754286100,A
740,"GROC03","Grochowska",52.3997552200,16.8760196800,A
741,"GROC04","Grochowska",52.3998923500,16.8763777500,A
742,"OSTR02","Ostroroga",52.4003292800,16.8818442500,A
743,"OSTR01","Ostroroga",52.4007473900,16.8824578700,A
744,"RONJ01","Rondo Nowaka-Jeziorańskiego",52.4025250300,16.8879965400,A
745,"RONJ02","Rondo Nowaka-Jeziorańskiego",52.4029096200,16.8910959200,A
747,"WOJS01","Wojskowa",52.4033404400,16.8918383400,A
748,"MATE02","Matejki",52.4062685300,16.9009621900,A
749,"MATE01","Matejki",52.4048597900,16.8999455200,A
750,"MATE42","Matejki",52.4052269000,16.8994038000,A
751,"SZYL02","Szylinga",52.4078811500,16.9000950500,A
752,"SZYL01","Szylinga",52.4083315800,16.8987510400,A
753,"KRAS02","Kraszewskiego",52.4086350800,16.9018666600,A
754,"KRAS01","Kraszewskiego",52.4089167600,16.9017838200,A
755,"POLN01","Polna Szpital",52.4090092300,16.8935784100,A
756,"POLN02","Polna Szpital",52.4092260700,16.8907428300,A
757,"BUKO01","Bukowska",52.4104712600,16.8892241500,A
758,"BUKO02","Bukowska",52.4092553900,16.8881746500,A
759,"GROD01","Grodziska",52.4100725300,16.8858516400,A
760,"GROD02","Grodziska",52.4101224600,16.8842069800,A
761,"BRZA02","Brzask",52.4072244300,16.8755343500,A
762,"BRZA01","Brzask",52.4081418900,16.8754767800,A
763,"MARC02","Marcelińska",52.4042609700,16.8762033700,A
764,"MARC01","Marcelińska",52.4043790100,16.8745328200,A
765,"MARC03","Marcelińska",52.4039261400,16.8753788800,A
766,"MARC04","Marcelińska",52.4048603400,16.8755535000,A
767,"SZAM02","Szamotulska",52.4044515900,16.8803991000,A
768,"SZAM01","Szamotulska",52.4046890900,16.8832369900,A
769,"OPAL01","Opalenicka",52.4049046300,16.8873494100,A
770,"OPAL02","Opalenicka",52.4047812700,16.8875152200,A
771,"OGNI02","Ognik",52.4077237900,16.8676297000,A
772,"OGNI01","Ognik",52.4072669000,16.8680441400,A
773,"RYCE01","Rycerska",52.4046259500,16.8673667000,A
774,"RYCE02","Rycerska",52.4039720100,16.8666057200,A
775,"RYCE04","Rycerska",52.4040272400,16.8692931700,A
776,"MARS01","Marszałkowska",52.4014503875,16.8650777659,A
777,"MARS02","Marszałkowska",52.4007296784,16.8641480394,A
778,"NIES01","Niestachowska",52.4213493000,16.8948642800,A
779,"NIES02","Niestachowska",52.4214491900,16.8943141900,A
780,"WOPO02","Wojska Polskiego",52.4275206900,16.8978431400,A
781,"WOPO03","Wojska Polskiego",52.4284803500,16.8973601200,A
782,"WOPO04","Wojska Polskiego",52.4276261200,16.9002674800,A
783,"WOPO01","Wojska Polskiego",52.4284195100,16.9006102000,A
784,"WIKL02","Witosa Kładka",52.4304664700,16.9023393800,A
785,"UP01","Uniwersytet Przyrodniczy",52.4261442500,16.9049661800,A
786,"UP02","Uniwersytet Przyrodniczy",52.4262198100,16.9039978500,A
787,"WIWI02","Witosa Wiadukt",52.4341228400,16.9053066600,A
788,"WINI02","Os. Winiary",52.4347906600,16.9087822900,A
789,"WINI01","Os. Winiary",52.4353447800,16.9103950800,A
790,"SWLE02","Św. Leonarda",52.4314124533,16.9146484213,A
791,"SWLE01","Św. Leonarda",52.4340309600,16.9134424000,A
792,"OPW02","Os. Powstańców W-wy",52.4354032800,16.9138770000,A
793,"ALSO04","Aleje Solidarności",52.4353311700,16.9207035900,A
794,"STRO01","Stróżyńskiego",52.4524870400,16.9032391400,A
795,"ALSO01","Aleje Solidarności",52.4362053000,16.9200216900,A
796,"ALSO02","Aleje Solidarności",52.4357524600,16.9200577600,A
797,"OSZW02","Os. Zwycięstwa",52.4354709200,16.9262548700,A
798,"OSZW01","Os. Zwycięstwa",52.4359415400,16.9255473300,A
799,"URWO01","Urząd Wojewódzki",52.4111032500,16.9190324100,A
800,"ZAME02","Zamek",52.4085773200,16.9176634700,A
801,"ZAME01","Zamek",52.4084429900,16.9179373900,A
802,"RKAP06","Rondo Kaponiera",52.4066642200,16.9133768600,A
803,"RKAP05","Rondo Kaponiera",52.4070300000,16.9132234300,A
806,"RKAP02","Rondo Kaponiera",52.4078763800,16.9104943000,A
809,"MT01","Most Teatralny",52.4109129400,16.9139456400,A
810,"POGL02","Poznań Główny",52.4027315500,16.9122439500,A
811,"POGL01","Poznań Główny",52.4025035600,16.9121744200,A
813,"DEEC05","Dębiec",52.3719292500,16.9036505400,A
815,"DEEC03","Dębiec",52.3710025600,16.9016160500,A
816,"DEEC01","Dębiec",52.3708661600,16.9011792500,A
819,"LOZO02","Łozowa",52.3677987400,16.9080370329,A
821,"KASZ02","Kasztanowa",52.3653554286,16.9040082181,A
822,"KASZ01","Kasztanowa",52.3657825100,16.9038945200,A
823,"OSDE01","Os. Dębina",52.3604115200,16.9044811600,A
824,"OSDE02","Os. Dębina",52.3615330700,16.9045535900,A
825,"AZAL02","Azaliowa",52.3636927500,16.9074394300,A
826,"AZAL01","Azaliowa",52.3640988500,16.9074692300,A
827,"DOWI02","Dolna Wilda",52.3696606600,16.9157519700,A
828,"PINZ01","Piastowska",52.3719934300,16.9168280900,A
829,"PINZ02","Piastowska",52.3722627000,16.9185810400,A
830,"PINZ04","Piastowska",52.3726471900,16.9176872700,A
831,"DENZ02","Dębina",52.3776519000,16.9268052800,A
832,"DENZ01","Dębina",52.3785911400,16.9269882600,A
833,"HEWI02","Hetmańska Wiadukt",52.3821631100,16.9286317900,A
834,"HEWI01","Hetmańska Wiadukt",52.3832121000,16.9288388300,A
835,"RSTA02","Rondo Starołęka",52.3809092300,16.9438591400,A
836,"RSTA03","Rondo Starołęka",52.3809460900,16.9421135800,A
837,"RSTA01","Rondo Starołęka",52.3814707300,16.9430293300,A
866,"MORON02","Mosina/Rondo",52.2433488100,16.8476093900,C
867,"MORON01","Mosina/Rondo",52.2433893800,16.8474932600,C
868,"MODWK01","Mosina/Dworzec Kolejowy",52.2413403700,16.8514785900,C
869,"MODWK02","Mosina/Dworzec Kolejowy",52.2415089500,16.8516783400,C
874,"MORZM02","Mosina/Rzeczypospolitej Mosińskiej",52.2512105800,16.8515332600,C
875,"MORZM01","Mosina/Rzeczypospolitej Mosińskiej",52.2510109700,16.8514883300,C
876,"PULAS02","Puszczykowo/Nadwarciańska Las",52.2576444900,16.8720841900,C
877,"PULAS01","Puszczykowo/Nadwarciańska Las",52.2567871100,16.8723839300,C
878,"PUNIW02","Puszczykowo/Niwka Szpital",52.2641841800,16.8701902600,C
879,"PUDWO01","Puszczykowo/Dworcowa",52.2720650500,16.8685220900,C
880,"PUDWO02","Puszczykowo/Dworcowa",52.2721878700,16.8686865800,C
881,"PUPUS02","Puszczykowo/Puszczykówko Dworzec Kolejowy",52.2721533000,16.8620024000,C
882,"PUPUS01","Puszczykowo/Puszczykówko Dworzec Kolejowy",52.2721039100,16.8618298900,C
883,"PULIB01","Puszczykowo/Libelta",52.2745733600,16.8581409100,C
884,"PULIB03","Puszczykowo/Libelta",52.2731169000,16.8588530600,C
885,"PUPSK02","Puszczykowo/Piaskowa",52.2768788200,16.8538291700,C
886,"PUPSK01","Puszczykowo/Piaskowa",52.2782809600,16.8540977900,C
887,"PURON02","Puszczykowo/Rondo Puszczyk",52.2812281400,16.8512104300,C
888,"PURON03","Puszczykowo/Rondo Puszczyk",52.2805694800,16.8514030200,C
889,"PUKOS01","Puszczykowo/Kościelna",52.2856426400,16.8553204000,C
890,"PUKOS02","Puszczykowo/Kościelna",52.2868372500,16.8561380700,C
891,"PUWIO01","Puszczykowo/Wiosenna",52.2888808000,16.8582297600,C
892,"PUWIO02","Puszczykowo/Wiosenna",52.2897239900,16.8587716600,C
893,"PUZRO02","Puszczykowo/Źródlana",52.2926917600,16.8614444000,C
894,"PUZRO01","Puszczykowo/Źródlana",52.2932731600,16.8621866100,C
895,"PUDWK02","Puszczykowo/Dworzec Kolejowy",52.2946202200,16.8683995900,C
896,"PUDWK01","Puszczykowo/Dworzec Kolejowy",52.2945244600,16.8691190000,C
897,"LEWPN01","Łęczyca/WPN",52.3025313034,16.8679554908,B
898,"LEWPN02","Łęczyca/WPN",52.3032175001,16.8686343387,B
899,"LELEC02","Łęczyca/Łęczycka",52.3062510845,16.8731353955,B
900,"LELEC01","Łęczyca/Łęczycka",52.3088601620,16.8775183918,B
901,"LEDWO01","Łęczyca/Dworcowa",52.3158289853,16.8816209945,B
902,"LEDWO02","Łęczyca/Dworcowa",52.3147187411,16.8810011768,B
903,"LULAS02","Luboń/Lasek",52.3216430000,16.8861590000,B
904,"LULAS01","Luboń/Lasek",52.3225891395,16.8867123538,B
905,"LUKRE01","Luboń/Kręta",52.3204501904,16.8805584499,B
906,"LUKRE02","Luboń/Kręta",52.3201162523,16.8781972398,B
907,"LUPOD01","Luboń/Podgórna",52.3250799374,16.8793335721,B
908,"LUPOD02","Luboń/Podgórna",52.3247731075,16.8793778448,B
909,"LUKOS01","Luboń/Kościół",52.3308280912,16.8772084830,B
910,"LUKOS02","Luboń/Kościół",52.3305032547,16.8772379981,B
911,"LUPAR02","Luboń/Parkowa",52.3338688062,16.8758507872,B
912,"LUPAR01","Luboń/Parkowa",52.3343740680,16.8755999086,B
913,"LUORL03","Luboń/Orlen",52.3396970107,16.8770904225,B
914,"LUORL04","Luboń/Orlen",52.3395977753,16.8755851510,B
915,"LUORL01","Luboń/Orlen",52.3388219268,16.8745521216,B
916,"LUORL02","Luboń/Orlen",52.3383528026,16.8746259094,B
917,"LUZER02","Luboń/Żeromskiego",52.3401570994,16.8816357520,B
918,"LUZER01","Luboń/Żeromskiego",52.3402022059,16.8829196600,B
919,"LUDWA02","Luboń/Dworcowa",52.3400127584,16.8901508661,B
920,"LUDWA01","Luboń/Dworcowa",52.3400759076,16.8889555035,B
921,"LURAT02","Luboń/Ratajskiego",52.3400849290,16.8922759552,B
922,"LURAT01","Luboń/Ratajskiego",52.3384430192,16.8916413800,B
923,"LUPKP02","Luboń/PKP",52.3440811908,16.8923054704,B
924,"LUPKP01","Luboń/PKP",52.3442345390,16.8923497430,B
925,"LUSTR04","Luboń/Streicha",52.3482665045,16.8896195938,B
926,"LUSTR01","Luboń/Streicha",52.3480951309,16.8904902901,B
927,"LUSTR02","Luboń/Streicha",52.3486182692,16.8902246539,B
928,"LUOKR02","Luboń/Okrzei",52.3462911580,16.8863581723,B
929,"LUOKR01","Luboń/Okrzei",52.3464174385,16.8869779900,B
930,"LUJPA02","Luboń/Jana Pawła II",52.3456056290,16.8828606298,B
932,"LUSTP01","Luboń/Straż Pożarna",52.3452989415,16.8779463612,B
933,"LUSTP04","Luboń/Straż Pożarna",52.3463001780,16.8772675133,B
934,"LUSTP02","Luboń/Straż Pożarna",52.3462640978,16.8790089057,B
935,"LUWPL01","Luboń/Wojska Polskiego",52.3426829913,16.8749653334,B
936,"LUWPL04","Luboń/Wojska Polskiego",52.3430438212,16.8745668792,B
937,"LUWPL02","Luboń/Wojska Polskiego",52.3434136688,16.8758212720,B
938,"LUSZK01","Luboń/Szkoła nr 3",52.3487445431,16.8969688604,B
939,"LUSZK02","Luboń/Szkoła nr 3",52.3481402292,16.8963490427,B
940,"LUDEB02","Luboń/Dębiecka",52.3526047411,16.9012633113,B
941,"LUDEB01","Luboń/Dębiecka",52.3531999753,16.9016322504,B
942,"LUMAY02","Luboń/R. Maya",52.3320913216,16.8890588064,B
943,"LUMAY01","Luboń/R. Maya",52.3332823344,16.8894425031,B
944,"LURUT02","Luboń/Rutkiewicz",52.3254589595,16.8875387774,B
945,"LURUT01","Luboń/Rutkiewicz",52.3262530906,16.8876863530,B
946,"WINOW01","Wiry/Nowa",52.3175890715,16.8703167009,B
947,"WINOW02","Wiry/Nowa",52.3179410803,16.8708774883,B
948,"WILAS04","Wiry/Laskowska",52.3150707727,16.8630559797,B
949,"WILAS01","Wiry/Laskowska",52.3155040386,16.8605176788,B
950,"WIPLD02","Wiry/Południowa",52.3175980974,16.8569168333,B
951,"WIKOS01","Wiry/Kościół",52.3196740061,16.8542752295,B
952,"WIKOS02","Wiry/Kościół",52.3211361094,16.8514417773,B
953,"WIWIR02","Wiry/Wirowska",52.3264065007,16.8442253288,B
954,"WIWIR01","Wiry/Wirowska",52.3266772230,16.8435317233,B
955,"WIBRZ02","Wiry/Brzoskwiniowa",52.3293663082,16.8368760623,B
956,"WIBRZ01","Wiry/Brzoskwiniowa",52.3296370124,16.8363890627,B
957,"KOJAL02","Komorniki/Jałowcowa",52.3341394829,16.8299252499,B
958,"KOJAL01","Komorniki/Jałowcowa",52.3335710600,16.8307074008,B
959,"KOGRA02","Komorniki/Granica",52.3361604829,16.8253061326,B
960,"KOGRA01","Komorniki/Granica",52.3362958144,16.8237565884,B
961,"KOPAK01","Komorniki/Os. Parkowe",52.3370085536,16.8290102810,B
962,"KOPAK02","Komorniki/Os. Parkowe",52.3370807291,16.8291873717,B
963,"KOLUB01","Komorniki/Lubońska",52.3390294225,16.8343230038,B
964,"KOLUB02","Komorniki/Lubońska",52.3391737668,16.8347214580,B
965,"KOWIR01","Komorniki/Wirowska",52.3408787975,16.8391929997,B
966,"KOWIR02","Komorniki/Wirowska",52.3410772624,16.8396947569,B
967,"LUSTU02","Luboń/Studzienna",52.3429896969,16.8445795103,B
968,"LUSTU01","Luboń/Studzienna",52.3428724274,16.8442991166,B
969,"LUTRA03","Luboń/Traugutta",52.3441533548,16.8489477491,B
970,"LUTRA01","Luboń/Traugutta",52.3446043767,16.8495823243,B
971,"LUTRA02","Luboń/Traugutta",52.3442255186,16.8479147197,B
972,"LUKLO02","Luboń/Klonowa",52.3422950958,16.8563708035,B
973,"LUKLO01","Luboń/Klonowa",52.3423041167,16.8567397426,B
974,"LUKLL02","Luboń/Kołłątaja",52.3424935544,16.8619491625,B
975,"LUKLL01","Luboń/Kołłątaja",52.3424755128,16.8615211931,B
976,"LUSZN01","Luboń/Szkolna",52.3427641783,16.8681030664,B
977,"LUSZN02","Luboń/Szkolna",52.3427371160,16.8676160668,B
978,"LUZAB02","Luboń/Żabikowo",52.3450460000,16.8542620000,B
979,"LUZAB01","Luboń/Żabikowo",52.3451270000,16.8543960000,B
980,"LUPBO01","Luboń/Pl. Bojanowskiego",52.3493759069,16.8608866179,B
981,"LUPBO02","Luboń/Pl. Bojanowskiego",52.3497457016,16.8614916780,B
982,"LUUNI01","Luboń/Unijna",52.3520365555,16.8652105840,B
983,"LUUNI02","Luboń/Unijna",52.3522439892,16.8655647655,B
984,"LUSIK01","Luboń/Sikorskiego",52.3484378774,16.8733124863,B
985,"LUSIK02","Luboń/Sikorskiego",52.3489339532,16.8723827598,B
986,"LUOLU03","Luboń/Os. Lubonianka",52.3486272888,16.8813701159,B
987,"LUOLU02","Luboń/Os. Lubonianka",52.3490692456,16.8810454495,B
988,"LUOLU01","Luboń/Os. Lubonianka",52.3481582686,16.8806765104,B
989,"LUPSZ01","Luboń/Puszkina",52.3527129661,16.8827720844,B
990,"LUPSZ02","Luboń/Puszkina",52.3528302095,16.8828311147,B
991,"LUFAO01","Luboń/Factory Outlet",52.3542731803,16.8910363199,B
992,"LUFAO02","Luboń/Factory Outlet",52.3542551434,16.8917889556,B
993,"LUCME01","Luboń/Cmentarz",52.3489900000,16.8505940000,B
994,"LUCME02","Luboń/Cmentarz",52.3492496349,16.8499807785,B
995,"SYCH01","Sycowska Centrum Handlowe",52.3541640000,16.8385760000,A
996,"SYCH02","Sycowska Centrum Handlowe",52.3547913800,16.8383158400,A
997,"LANG01","Lange",52.3558960200,16.8335377800,A
998,"LANG02","Lange",52.3560442600,16.8335880300,A
999,"SYNZ01","Sycowska II",52.3615147000,16.8365471900,A
1000,"SYCO01","Sycowska I",52.3643997500,16.8389831500,A
1001,"SYCO02","Sycowska I",52.3643397200,16.8390925000,A
1002,"TRZE01","Trzebińska",52.3680834800,16.8421916800,A
1003,"TRZE02","Trzebińska",52.3681974400,16.8424564600,A
1004,"KOWA02","Kowalewicka",52.3686819800,16.8458259200,A
1005,"RUDN01","Rudnicze",52.3758228400,16.8437427000,A
1006,"KRKA02","Krzepicka",52.3767922500,16.8417003600,A
1007,"WOLO01","Wołowska",52.3706340200,16.8426570500,A
1008,"WOLO02","Wołowska",52.3704000800,16.8428975300,A
1009,"CEDZ01","Cedzyńska",52.3675095800,16.8491513400,A
1010,"CEDZ02","Cedzyńska",52.3670087900,16.8499730300,A
1011,"FABI01","Fabianowo",52.3653535900,16.8558235000,A
1012,"NOKO01","Nowe Kotowo",52.3610670800,16.8540189100,A
1013,"TYNZ02","Tyniecka ",52.3621900300,16.8580446400,A
1014,"FABI02","Fabianowo",52.3659023400,16.8590950900,A
1015,"FANZ01","Fabianowo I",52.3637491100,16.8526988000,A
1016,"KOTO02","Kotowo",52.3592269200,16.8537916000,A
1017,"KOTO01","Kotowo",52.3581464200,16.8543241700,A
1018,"URAD02","Uradzka",52.3554451100,16.8599709100,A
1019,"URAD01","Uradzka",52.3558237000,16.8589186200,A
1020,"KMNZ02","Komornicka",52.3705838100,16.8640463000,A
1021,"OSIA01","Ostatnia",52.3729464900,16.8648083500,A
1022,"OSIA02","Ostatnia",52.3729373400,16.8664989900,A
1023,"BOJA02","Bojanowska",52.3760578900,16.8722833700,A
1024,"BOJA01","Bojanowska",52.3763846200,16.8722159200,A
1025,"SMIE02","Śmiełowska",52.3732651000,16.8767426500,A
1026,"SMIE01","Śmiełowska",52.3738876800,16.8769520100,A
1027,"LESZ01","Leszczyńska",52.3762098000,16.8788445100,A
1028,"LESZ02","Leszczyńska",52.3761717900,16.8790264700,A
1029,"RAKO03","Rakoniewicka",52.3792719300,16.8792907800,A
1030,"RAKO01","Rakoniewicka",52.3775167500,16.8803468800,A
1031,"RAKO02","Rakoniewicka",52.3779337800,16.8811918100,A
1032,"PRCZ01","Przełęcz",52.3772787000,16.8880974300,A
1033,"PRCZ02","Przełęcz",52.3772577500,16.8886370600,A
1036,"GORE01","Górecka",52.3729957100,16.8932705500,A
1037,"GORE02","Górecka",52.3734426200,16.8937284300,A
1038,"JESI02","Jesionowa",52.3699119500,16.8928968800,A
1039,"JESI01","Jesionowa",52.3696270400,16.8930014600,A
1041,"BOWE02","Bohaterów Westerplatte",52.3710210800,16.8856858500,A
1042,"KOZM02","Koźmińska",52.3690193500,16.8768203300,A
1043,"KOZM01","Koźmińska",52.3692065300,16.8765909200,A
1044,"BUCZ01","Buczka",52.3638621700,16.8787710900,A
1045,"BUCZ02","Buczka",52.3633451300,16.8791685200,A
1046,"OKUL02","Okulickiego",52.3593689100,16.8813093200,A
1047,"OKUL01","Okulickiego",52.3599960000,16.8807681800,A
1048,"SWIE02","Świerczewo",52.3569836900,16.8848954300,A
1049,"SWIE01","Świerczewo",52.3570526700,16.8839986500,A
1050,"SWIE03","Świerczewo",52.3563551700,16.8843606300,A
1051,"KORF01","Korfantego",52.3592496300,16.8867441100,A
1052,"KORF02","Korfantego",52.3596159100,16.8875136500,A
1053,"BEDZ02","Będzińska",52.3613977000,16.8897742200,A
1054,"BEDZ01","Będzińska",52.3610973600,16.8890791300,A
1055,"SJNZ01","Sempołowskiej",52.3628655300,16.8913227000,A
1056,"SJNZ02","Sempołowskiej",52.3631961200,16.8919351800,A
1057,"CIES01","Cieszyńska",52.3654909200,16.8943995000,A
1058,"OPOL02","Opolska",52.3673783800,16.8970541200,A
1059,"OPOL01","Opolska",52.3673960500,16.8956850100,A
1060,"KACZ02","Kacza",52.3803918213,16.8623033440,A
1061,"KACZ01","Kacza",52.3804992200,16.8621902600,A
1062,"MRAG02","Mrągowska",52.3812679800,16.8648346700,A
1063,"MRAG01","Mrągowska",52.3823134000,16.8650648000,A
1064,"OSKO02","Os. Kopernika",52.3850983900,16.8633860200,A
1065,"OSKO01","Os. Kopernika",52.3855792700,16.8635917600,A
1066,"KCNZ02","Kacza I",52.3819875700,16.8615552500,A
1067,"KCNZ01","Kacza I",52.3821649100,16.8610899900,A
1068,"TREB01","Trębacka",52.3872766500,16.8676496600,A
1069,"TREB02","Trębacka",52.3876410100,16.8695737300,A
1070,"JUGO02","Jugosłowiańska",52.3911399600,16.8662390600,A
1071,"JUGO01","Jugosłowiańska",52.3911291500,16.8659712900,A
1072,"TACZ02","Taczanowskiego",52.3915854300,16.8677131200,A
1073,"TACZ01","Taczanowskiego",52.3916647700,16.8688547400,A
1074,"SCIE01","Ściegiennego",52.3900928200,16.8736985100,A
1075,"SCIE04","Ściegiennego",52.3898548100,16.8749956700,A
1076,"SCIE02","Ściegiennego",52.3904857400,16.8748599000,A
1077,"SCIE03","Ściegiennego",52.3909701900,16.8733010700,A
1078,"KORD02","Kordeckiego",52.3862784200,16.8795714400,A
1079,"KORD04","Kordeckiego",52.3872202000,16.8804214000,A
1080,"KORD01","Kordeckiego",52.3876049300,16.8786796700,A
1081,"CZNZ02","Częstochowska",52.3841299200,16.8825392400,A
1082,"CZNZ01","Częstochowska",52.3841036300,16.8830213000,A
1083,"GORC30","Górczyn",52.3818397800,16.8814533600,A
1084,"GORC21","Górczyn",52.3815782900,16.8809082400,A
1085,"SIEL72","Sielska",52.3840502200,16.8870422900,A
1086,"SIEL71","Sielska",52.3840751200,16.8867624800,A
1087,"KRAU72","Krauthofera",52.3869666500,16.8908748900,A
1088,"KRAU71","Krauthofera",52.3875876200,16.8913676500,A
1089,"ARCI02","Arciszewskiego",52.3922059900,16.8859797200,A
1090,"ARCI01","Arciszewskiego",52.3923167400,16.8853747500,A
1091,"SSKA01","Szymborska",52.3927756900,16.8897563700,A
1092,"SSKA02","Szymborska",52.3930640200,16.8885300600,A
1093,"CHOC02","Chociszewskiego",52.3914789000,16.8933098000,A
1094,"CHOC01","Chociszewskiego",52.3918764200,16.8940733300,A
1095,"SOEJ02","Sczanieckiej",52.3943486900,16.8966414900,A
1096,"SOEJ01","Sczanieckiej",52.3949794400,16.8969889800,A
1097,"WYSP02","Wyspiańskiego",52.3974319100,16.8996306400,A
1098,"WYSP01","Wyspiańskiego",52.3983249400,16.9001994500,A
1099,"PALM02","Palmiarnia",52.4011323300,16.9000809700,A
1100,"PALM01","Palmiarnia",52.4021375600,16.8996216400,A
1101,"KONZ02","Konopnickiej",52.4033702600,16.8997856100,A
1105,"POLW01","Półwiejska",52.4002463500,16.9264945900,A
1106,"OPL01","Os. Pod Lipami",52.4312643600,16.9366546100,A
1107,"OPL03","Os. Pod Lipami",52.4309114800,16.9347196000,A
1108,"OPL02","Os. Pod Lipami",52.4303104300,16.9374326200,A
1109,"OPRZ01","Os. Przyjaźni",52.4306482000,16.9315862800,A
1110,"OPRZ02","Os. Przyjaźni",52.4306230500,16.9298942700,A
1111,"OZIM02","Ozimina",52.4277672700,16.9236348800,A
1112,"OZIM01","Ozimina",52.4280068400,16.9248374900,A
1113,"SLKA06","Słowiańska",52.4270017600,16.9212802300,A
1114,"SLKA02","Słowiańska",52.4265125500,16.9199547800,A
1115,"SLKA04","Słowiańska",52.4269517000,16.9193400100,A
1116,"SLKA03","Słowiańska",52.4273333500,16.9192608700,A
1117,"SLKA01","Słowiańska",52.4278416800,16.9204757300,A
1118,"KORA01","Koronna",52.4293591700,16.9159165000,A
1120,"WYLO01","Wyłom",52.4332335800,16.9206322300,A
1121,"WYLO02","Wyłom",52.4323742400,16.9199042200,A
1122,"KSMI02","Księcia Mieszka I",52.4292671700,16.9199519400,A
1123,"WOJT01","Wójtowska",52.4300083900,16.9399070500,A
1124,"WILC01","Wilczak",52.4269576000,16.9479935100,A
1125,"WILC02","Wilczak",52.4272747700,16.9475104800,A
1126,"WILC03","Wilczak",52.4289879000,16.9469533800,A
1127,"WILC04","Wilczak",52.4288782100,16.9467683000,A
1128,"WIGR01","Winogrady",52.4239014800,16.9490327300,A
1129,"WIGR02","Winogrady",52.4221437800,16.9470718400,A
1130,"GABA02","Garbary",52.4167365300,16.9394391300,A
1131,"GABA01","Garbary",52.4174898500,16.9403268300,A
1132,"GABA03","Garbary",52.4166455993,16.9377587656,A
1133,"GRLA02","Grochowe Łąki",52.4130160700,16.9387490300,A
1134,"MAGA01","Małe Garbary",52.4117352000,16.9388622900,A
1135,"MAGA03","Małe Garbary",52.4106331000,16.9393766600,A
1136,"MAGA02","Małe Garbary",52.4104549400,16.9380900400,A
1137,"MAGA04","Małe Garbary",52.4113480200,16.9369076300,A
1139,"KATE01","Katedra",52.4100161100,16.9481008200,A
1140,"KATE02","Katedra",52.4102740200,16.9478526000,A
1141,"ROSR30","Rondo Śródka",52.4094390300,16.9544934700,A
1143,"ROSR04","Rondo Śródka",52.4093966100,16.9557316000,A
1144,"ROSR01","Rondo Śródka",52.4096810100,16.9577102400,A
1145,"ROSR03","Rondo Śródka",52.4109266900,16.9578971000,A
1146,"ROSR02","Rondo Śródka",52.4104256300,16.9554669000,A
1147,"ZAWA02","Zawady",52.4130621900,16.9570964000,A
1148,"ZAWA03","Zawady",52.4148157700,16.9571803800,A
1149,"ZAWA01","Zawady",52.4148562300,16.9585338300,A
1150,"KORO02","Koronkarska",52.4160584500,16.9593666900,A
1151,"KORO01","Koronkarska",52.4166131800,16.9602661700,A
1152,"STUD02","Studzienna",52.4195420100,16.9646698600,A
1153,"STUD01","Studzienna",52.4194532200,16.9657768000,A
1154,"RWSC01","Rynek Wschodni",52.4208191000,16.9700531800,A
1155,"RWSC02","Rynek Wschodni",52.4209399500,16.9698606200,A
1156,"GLOW01","Główna",52.4227869400,16.9764654200,A
1157,"GLOW02","Główna",52.4220824000,16.9741896800,A
1158,"GLOW03","Główna",52.4223130200,16.9767435600,A
1159,"BALA02","Bałtycka",52.4254561100,16.9778232100,A
1160,"BALA03","Bałtycka",52.4266050100,16.9774817000,A
1161,"BALA01","Bałtycka",52.4267849300,16.9785790600,A
1162,"CHEM04","Chemiczna",52.4269845400,16.9656891000,A
1164,"CHEM02","Chemiczna",52.4272314800,16.9667300600,A
1165,"SMNA01","Smolna",52.4235503300,16.9651920800,A
1166,"SMNA02","Smolna",52.4230283300,16.9641699300,A
1167,"HLDA01","Hlonda",52.4200346500,16.9617654700,A
1168,"HLDA02","Hlonda",52.4195008600,16.9604096200,A
1169,"URWI01","Urwista",52.4230537700,16.9831660800,A
1170,"URWI02","Urwista",52.4233037500,16.9843164300,A
1171,"GNIE01","Gnieźnieńska",52.4236887200,16.9884845700,A
1172,"GNIE02","Gnieźnieńska",52.4243702900,16.9908254300,A
1173,"CMEN01","Gnieźnieńska/Cmentarz",52.4251790400,16.9937703300,A
1174,"GNNZ02","Gnieźnieńska I",52.4279685700,17.0020174400,A
1175,"GNNZ01","Gnieźnieńska I",52.4279019100,17.0021879600,A
1176,"BOBA02","Bogucin Bałtycka",52.4298729300,17.0090791800,A
1177,"BOBA01","Bogucin Bałtycka",52.4302054700,17.0112901700,A
1178,"BGPET02","Bogucin/Pętla",52.4322230000,17.0194340000,B
1179,"JANZ02","Janikowska ",52.4317080300,17.0020624300,A
1180,"JANZ01","Janikowska ",52.4321270000,17.0027201500,A
1181,"PRZA01","Prząśniczki",52.4338518300,17.0086279000,A
1182,"PRZA02","Prząśniczki",52.4338584900,17.0081972900,A
1183,"JANI02","Janikowo",52.4365520000,17.0178593100,A
1184,"JANI01","Janikowo",52.4364344700,17.0183890100,A
1185,"JAASF02","Janikowo/Asfaltowa",52.4404412077,17.0272191149,B
1186,"JAASF01","Janikowo/Asfaltowa",52.4406482262,17.0278094174,B
1187,"JAOGR01","Janikowo/Ogrodnicza",52.4436050000,17.0324690000,B
1189,"KZZDR02","Koziegłowy/Zakłady Drobiarskie",52.4413992000,17.0001141400,B
1190,"KZZDR01","Koziegłowy/Zakłady Drobiarskie",52.4412425800,16.9981860100,B
1191,"KZTDW02","Koziegłowy/Taczaka II",52.4433574000,17.0029086200,B
1192,"KZTDW01","Koziegłowy/Taczaka II",52.4437297100,17.0028496100,B
1193,"KZTJE01","Koziegłowy/Taczaka I",52.4476466600,17.0011361900,B
1194,"KZTJE02","Koziegłowy/Taczaka I",52.4479848100,17.0008845100,B
1195,"KZKRO01","Koziegłowy/Krótka",52.4470923167,16.9956526868,B
1196,"KZKRO02","Koziegłowy/Krótka",52.4473263022,16.9966414435,B
1197,"KZPLY02","Koziegłowy/Pływalnia",52.4493331273,16.9920665989,B
1198,"KZPLY01","Koziegłowy/Pływalnia",52.4481182441,16.9922879623,B
1199,"KZSZK02","Koziegłowy/Piaskowa Szkoła",52.4456163792,16.9910040543,B
1200,"KZSZK04","Koziegłowy/Piaskowa Szkoła",52.4466153423,16.9905465699,B
1201,"KZOSK01","Koziegłowy/Os. Karolin",52.4437083867,16.9899562673,B
1202,"KZOSK02","Koziegłowy/Os. Karolin",52.4440953919,16.9905760850,B
1203,"KZOSL02","Koziegłowy/Os. Leśne",52.4533864300,16.9920604200,B
1204,"KZOSL01","Koziegłowy/Os. Leśne",52.4524286780,16.9913729934,B
1205,"GDKA01","Gdyńska Karolin",52.4393610952,16.9820609709,A
1206,"GDKA02","Gdyńska Karolin",52.4391810739,16.9818100923,A
1207,"GDII02","Gdyńska II",52.4348153317,16.9800391847,A
1208,"GDII01","Gdyńska II",52.4352924338,16.9803048209,A
1209,"GDI02","Gdyńska I",52.4303771340,16.9788880948,A
1210,"GDI01","Gdyńska I",52.4319706154,16.9795817003,A
1213,"TERM01","Termalna",52.4091242700,16.9715842800,A
1216,"LOMZ01","Łomżyńska",52.4095850100,16.9847628200,A
1217,"PUST01","Pusta",52.4099213600,16.9948577000,A
1218,"MILO01","Miłostowo",52.4102493000,17.0043568700,A
1219,"BONY01","Bożeny",52.4106652900,17.0160726900,A
1220,"SWIA01","Światopełka",52.4088075100,17.0247293100,A
1221,"SWIA02","Światopełka",52.4076820700,17.0244985000,A
1222,"SOBI02","Sobiesława",52.4053544600,17.0227539200,A
1223,"SOBI01","Sobiesława",52.4055865700,17.0232445100,A
1224,"ZIEM02","Ziemowita",52.4030322400,17.0199875800,A
1225,"ZIEM01","Ziemowita",52.4031248000,17.0203630400,A
1226,"BRML01","Browarna Młyn",52.3992266000,17.0181635400,A
1227,"BRML02","Browarna Młyn",52.3994165700,17.0184791300,A
1228,"PIWN01","Piwna",52.3926936100,17.0148841400,A
1229,"PIWN02","Piwna",52.3928587300,17.0149661200,A
1230,"PIWN03","Piwna",52.3921488500,17.0145561600,A
1231,"PIWN04","Piwna",52.3924873100,17.0147099900,A
1232,"KOBY02","Kobylepole",52.3909074600,17.0175220300,A
1233,"KOBY01","Kobylepole",52.3908454600,17.0182072300,A
1234,"KLOK02","Kobylepole Lokomotywownia",52.3891142900,17.0251558600,A
1235,"KLOK01","Kobylepole Lokomotywownia",52.3891428700,17.0253662300,A
1236,"DARZ02","Darzybór",52.3881598900,17.0291029000,A
1237,"DARZ01","Darzybór",52.3883460100,17.0297466500,A
1238,"BORO01","Borówki",52.3896412700,17.0317914200,A
1239,"BORO02","Borówki",52.3896073900,17.0315419500,A
1240,"ZNAS02","Żywiczna Nastawnia",52.3950411600,17.0377655000,A
1241,"ZNAS01","Żywiczna Nastawnia",52.3950817300,17.0380620300,A
1242,"SDSZU02","Swarzędz/Szumana",52.3986846022,17.0462711292,B
1243,"SDSZU01","Swarzędz/Szumana",52.3990720028,17.0470532801,B
1244,"SDPRZ01","Swarzędz/Przybylskiego",52.4011260698,17.0557454849,B
1245,"SDPRZ02","Swarzędz/Przybylskiego",52.4013152554,17.0555536366,B
1246,"SDCEG02","Swarzędz/Os. Cegielskiego",52.4011580000,17.0591470000,B
1247,"SDCEG01","Swarzędz/Os. Cegielskiego",52.4010720000,17.0590580000,B
1248,"SDRAC02","Swarzędz/Os. Raczyńskiego",52.4000140000,17.0633630000,B
1249,"SDRAC01","Swarzędz/Os. Raczyńskiego",52.3991040000,17.0647120000,B
1250,"SDKUP04","Swarzędz/Kupiecka",52.3976485142,17.0708424723,B
1251,"SDKUP02","Swarzędz/Kupiecka",52.3977470000,17.0721820000,B
1252,"ZAGIM01","Zalasewo/Planetarna Gimnazjum",52.3918170000,17.0687190000,B
1253,"ZAGIM02","Zalasewo/Planetarna Gimnazjum",52.3928840000,17.0689170000,B
1254,"PRZM02","Os. Przemysława",52.3916630400,17.0083528900,A
1255,"PRZM01","Os. Przemysława",52.3915536400,17.0092621300,A
1256,"ZELA01","Żelazna",52.3919937600,16.9995177000,A
1257,"ZELA02","Żelazna",52.3923997500,16.9985012200,A
1258,"BIGO01","Biała Góra",52.3936058900,16.9924657300,A
1259,"BIGO02","Biała Góra",52.3940191500,16.9903327900,A
1260,"BIGO03","Biała Góra",52.3932683700,16.9906881700,A
1261,"CHAR01","Chartowo",52.3957706000,16.9834106800,A
1262,"CHAR02","Chartowo",52.3964660400,16.9821881100,A
1263,"CHAR04","Chartowo",52.3957374800,16.9825005300,A
1264,"OT I02","Os. Tysiąclecia I",52.3931962200,16.9805026000,A
1265,"OT I01","Os. Tysiąclecia I",52.3930785700,16.9808968800,A
1266,"KURL02","Kurlandzka",52.3917866300,16.9838163500,A
1267,"KURL01","Kurlandzka",52.3921056100,16.9821322500,A
1268,"ZIEL01","Zieliniec",52.4150040000,17.0446980000,A
1274,"ANST02","Antoninek Stacja",52.4097310900,17.0293978700,A
1275,"ANST01","Antoninek Stacja",52.4095374000,17.0288256500,A
1277,"KRNZ02","Krańcowa I",52.4026305232,16.9890560560,A
1278,"KRNZ01","Krańcowa I",52.4024683690,16.9894249950,A
1279,"CZEK02","Czekalskie",52.4047135700,16.9846871000,A
1280,"CZEK01","Czekalskie",52.4047970400,16.9844423300,A
1281,"MOGI02","Mogileńska",52.4097321000,16.9926376400,A
1282,"BAKA02","Baraniaka",52.4041324800,16.9544573600,A
1283,"BAKA01","Baraniaka",52.4032789700,16.9555193700,A
1284,"KATO01","Katowicka",52.4019205900,16.9631121000,A
1285,"KATO02","Katowicka",52.4024540000,16.9622540300,A
1286,"WOLK02","Wołkowyska",52.4003547200,16.9686933200,A
1287,"WOLK01","Wołkowyska",52.4002819800,16.9682977300,A
1288,"WIAN02","Wiankowa",52.3989782000,16.9737915300,A
1289,"WIAN01","Wiankowa",52.3982756800,16.9755023100,A
1290,"KORN02","Kórnicka",52.3994053000,16.9528862800,A
1291,"RRAT03","Rondo Rataje",52.3968941000,16.9507440800,A
1292,"RRAT01","Rondo Rataje",52.3947340400,16.9494022900,A
1293,"RRAT30","Rondo Rataje",52.3968735900,16.9497940800,A
1294,"SERA01","Serafitek",52.3967302800,16.9457474800,A
1295,"RRAT08","Rondo Rataje",52.3964613400,16.9483842100,A
1296,"BRSZK01","Borówiec/Szkoła",52.2773756200,17.0473616100,B
1297,"BRDSZ01","Borówiec/Deszczowa",52.2806415700,17.0382476200,B
1298,"BRDSZ02","Borówiec/Deszczowa",52.2806034900,17.0379864300,B
1299,"BRPOD02","Borówiec/Pod Borem",52.2804138600,17.0276079800,B
1300,"BRPOD01","Borówiec/Pod Borem",52.2805952400,17.0269315300,B
1301,"BRBOR02","Borówiec/Borówkowa",52.2821272100,17.0141312700,B
1302,"BRBOR01","Borówiec/Borówkowa",52.2827159500,17.0121129800,B
1303,"KALIS01","Kamionki/Lisia",52.2840455900,17.0066226900,B
1304,"KALIS02","Kamionki/Lisia",52.2840542800,17.0061699400,B
1305,"KALOT02","Kamionki/Lotnicza",52.2849603500,17.0001225400,B
1306,"KALOT01","Kamionki/Lotnicza",52.2851072300,16.9993703300,B
1307,"KAPET01","Kamionki/Pętla",52.2860142298,16.9942654758,B
1308,"KALAK01","Kamionki/Łąkowa",52.2884008800,16.9816866100,B
1309,"KALAK02","Kamionki/Łąkowa",52.2883077800,16.9818029200,B
1310,"KAPLA01","Kamionki/Platanowa",52.2891725400,16.9787976000,B
1311,"KAPLA02","Kamionki/Platanowa",52.2892556900,16.9782593900,B
1312,"DALIP01","Daszewice/Lipowa",52.2926206600,16.9683609800,B
1313,"DALIP02","Daszewice/Lipowa",52.2927155600,16.9679685700,B
1314,"DAPET01","Daszewice/Pętla",52.2957547000,16.9627815600,B
1315,"DAPIO02","Daszewice/Piotrowska",52.2991004200,16.9583337300,B
1316,"DAPIO01","Daszewice/Piotrowska",52.2993912300,16.9580540800,B
1317,"DALES02","Daszewice/Leśna",52.3019869700,16.9538963400,B
1318,"DALES01","Daszewice/Leśna",52.3024275300,16.9533250100,B
1319,"BBJDW02","Babki/Jednostka Wojskowa",52.3116340400,16.9377460700,B
1320,"BBJDW01","Babki/Jednostka Wojskowa",52.3114071300,16.9384092000,B
1321,"BBOSZ02","Babki/Ośrodek Zdrowia",52.3134674000,16.9362469600,B
1322,"BBOSZ01","Babki/Ośrodek Zdrowia",52.3136827700,16.9360199100,B
1323,"GLKO02","Głuszyna Kościół",52.3199695300,16.9510315300,A
1324,"DASZ01","Daszewicka",52.3179565600,16.9543753500,A
1325,"DASZ02","Daszewicka",52.3181933900,16.9540910700,A
1326,"GLSZ01","Głuszyna Szkoła",52.3139840300,16.9648432500,A
1327,"GLSZ02","Głuszyna Szkoła",52.3143230900,16.9643235200,A
1328,"GLOS01","Głuszyna OSIR",52.3127100000,16.9691963300,A
1329,"GLOS02","Głuszyna OSIR",52.3128791900,16.9689151300,A
1330,"PIOT02","Piotrowo",52.3115176300,16.9742998800,A
1331,"PIOT01","Piotrowo",52.3115526900,16.9737851900,A
1332,"SYPN02","Sypniewo",52.3079383100,16.9825033600,A
1333,"GLUS02","Głuszyna",52.3215929000,16.9482896200,A
1334,"GLUS01","Głuszyna",52.3217432600,16.9478140500,A
1335,"BBBAB02","Babki/",52.3169076300,16.9313970600,B
1336,"BBBAB01","Babki/",52.3177123300,16.9304748000,B
1337,"CZGRO01","Czapury/Gromadzka",52.3198030600,16.9223207600,B
1338,"CZGLU01","Czapury/Głuszynka",52.3180093000,16.9129402900,B
1339,"CZGLU02","Czapury/Głuszynka",52.3183083400,16.9129405900,B
1340,"CZSZK01","Czapury/Szkoła",52.3139351800,16.9117426500,B
1341,"CZSZK02","Czapury/Szkoła",52.3144885800,16.9117173900,B
1342,"CZWAR01","Czapury/Warta",52.3088408300,16.9101880500,B
1343,"WRPOD02","Wiórek/Podleśna",52.3064890000,16.9088725700,B
1344,"WRPET02","Wiórek/Pętla",52.3035467500,16.9075839000,B
1345,"CZLES02","Czapury/Leśna",52.3241389200,16.9116227200,B
1346,"CZLES01","Czapury/Leśna",52.3230381000,16.9125335000,B
1347,"CZDEB01","Czapury/Dębowa",52.3261267526,16.9106343641,B
1348,"RYDZ01","Rydzowa",52.3343571500,16.9119543700,A
1349,"RYDZ02","Rydzowa",52.3340806100,16.9119561700,A
1351,"STWI03","Starołęka Wielka",52.3415868200,16.9175363200,A
1353,"STWI01","Starołęka Wielka",52.3416937300,16.9186579400,A
1354,"STWI02","Starołęka Wielka",52.3424213878,16.9182049941,A
1355,"STRZ02","Strzeleckiego",52.3356666600,16.9244965400,A
1356,"STRZ01","Strzeleckiego",52.3357390300,16.9242662300,A
1357,"OZAR01","Ożarowska",52.3322557400,16.9327928300,A
1358,"OZAR02","Ożarowska",52.3325719800,16.9323576500,A
1359,"TARN02","Tarnobrzeska",52.3452016400,16.9183718600,A
1360,"TARN01","Tarnobrzeska",52.3459755700,16.9185824100,A
1361,"CZER01","Czernichowska ",52.3464601100,16.9196288900,A
1362,"CZER02","Czernichowska ",52.3468012300,16.9191201800,A
1363,"STAS01","Staszowska",52.3450232200,16.9275027300,A
1364,"STAS02","Staszowska",52.3451021900,16.9266982900,A
1365,"TOMA02","Tomaszowska",52.3436345800,16.9344514300,A
1366,"TOMA01","Tomaszowska",52.3438885100,16.9334910300,A
1367,"LYKA02","Łysogórska",52.3437239400,16.9400656000,A
1368,"LYKA01","Łysogórska",52.3438501700,16.9401517500,A
1369,"ZAKL01","Zaklikowska",52.3486860100,16.9411966200,A
1370,"ZAKL02","Zaklikowska",52.3494241300,16.9415749700,A
1371,"DEKA02","Dęblińska",52.3518709300,16.9422543300,A
1372,"DEKA01","Dęblińska",52.3520730700,16.9421608000,A
1373,"ROMI02","Rondo Minikowo",52.3559338200,16.9431014900,A
1374,"ROMI01","Rondo Minikowo",52.3549535600,16.9429748500,A
1375,"ROMI03","Rondo Minikowo",52.3552717700,16.9439575900,A
1376,"RAKA02","Radomska",52.3542823200,16.9487158300,A
1377,"RAKA01","Radomska",52.3543120600,16.9481122600,A
1378,"GARA02","Garaszewo",52.3520455744,16.9567517497,A
1379,"PINC01","Pińczowska",52.3596976400,16.9407934400,A
1380,"PINC02","Pińczowska",52.3594570600,16.9410790900,A
1381,"SWAC01","Św. Antoniego Cmentarz",52.3629986400,16.9379452500,A
1382,"SWAC02","Św. Antoniego Cmentarz",52.3632276100,16.9371122600,A
1383,"SWAK01","Św. Antoniego Kościół",52.3639227300,16.9327687900,A
1384,"SWAK02","Św. Antoniego Kościół",52.3641264900,16.9321579200,A
1385,"SWAN03","Św. Antoniego",52.3645619996,16.9293026818,A
1386,"SWAN01","Św. Antoniego",52.3640272200,16.9273255500,A
1387,"SWAN02","Św. Antoniego",52.3643035500,16.9276630400,A
1388,"ZEGL01","Żeglarska",52.3566341900,16.9237549200,A
1389,"ZEGL02","Żeglarska",52.3569383400,16.9240614600,A
1390,"DZIE01","Dziedzicka",52.3535767900,16.9222460000,A
1391,"DZIE02","Dziedzicka",52.3543038500,16.9228102900,A
1392,"STAW01","Starołęcka Wiadukt",52.3505683100,16.9208113400,A
1393,"STAW02","Starołęcka Wiadukt",52.3512638600,16.9213346700,A
1394,"STAR21","Starołęka",52.3662288200,16.9300926300,A
1395,"STAR30","Starołęka",52.3662288200,16.9300926300,A
1396,"STAR02","Starołęka",52.3687683500,16.9327245900,A
1397,"STAR04","Starołęka",52.3687272200,16.9333491400,A
1398,"STAR01","Starołęka",52.3688410000,16.9319550600,A
1399,"BYST02","Bystra",52.3707231600,16.9340445900,A
1400,"BYST01","Bystra",52.3712076400,16.9343372100,A
1401,"STOM02","Stomil",52.3761813600,16.9399001600,A
1402,"STOM01","Stomil",52.3763782000,16.9399300500,A
1403,"FORT01","Forteczna",52.3678671100,16.9387037800,A
1404,"FORT02","Forteczna",52.3677415500,16.9386690700,A
1405,"OKOP02","Okopowa",52.3669557100,16.9432286600,A
1406,"OKOP01","Okopowa",52.3668706800,16.9442475200,A
1407,"WARO02","Warowna",52.3672319000,16.9475601500,A
1408,"WARO01","Warowna",52.3676391000,16.9482142200,A
1409,"OBOD01","Obodrzycka/Orbit",52.3715211900,16.9574481800,A
1410,"OBOD02","Obodrzycka/Orbit",52.3716606900,16.9580660400,A
1411,"OBNZ02","Os. Orła Białego III",52.3744328800,16.9643234200,A
1412,"OOB01","Os. Orła Białego",52.3754060900,16.9651236900,A
1413,"OOB02","Os. Orła Białego",52.3757688500,16.9665523300,A
1414,"OOB04","Os. Orła Białego",52.3758506800,16.9661409900,A
1415,"OBII02","Os. Orła Białego II",52.3756031000,16.9606615400,A
1416,"OBII01","Os. Orła Białego II",52.3760766600,16.9603524000,A
1417,"SZII01","Os. Stare Żegrze",52.3802102300,16.9567735200,A
1418,"SZII02","Os. Stare Żegrze",52.3806136000,16.9567160600,A
1419,"OAK01","Os. Armii Krajowej",52.3815993700,16.9517949900,A
1420,"OAK02","Os. Armii Krajowej",52.3817815200,16.9518798600,A
1421,"OBOH01","Os. Bohaterów II Wojny Światowej",52.3834586900,16.9470939000,A
1422,"OBOH02","Os. Bohaterów II Wojny Światowej",52.3828974700,16.9475344600,A
1423,"OSPO01","Os. Polan",52.3832711600,16.9610202400,A
1424,"INFL03","Inflancka",52.3844724600,16.9625515300,A
1425,"DRDE01","Droga Dębińska",52.3874419000,16.9305755000,A
1426,"DRDE02","Droga Dębińska",52.3870132300,16.9305828900,A
1427,"BIEL01","Bielniki",52.3947216700,16.9334032600,A
1428,"BIEL02","Bielniki",52.3944250900,16.9335446300,A
1429,"AWF03","AWF",52.3987909900,16.9367852400,A
1430,"AWF04","AWF",52.3994295800,16.9340947100,A
1431,"AWF02","AWF",52.3997468000,16.9359215600,A
1432,"KAWI01","Kazimierza Wielkiego",52.4008328400,16.9365209600,A
1433,"MORO01","Most Św. Rocha",52.4022680400,16.9406147500,A
1434,"PLBE02","Pl. Bernardyński",52.4040241900,16.9370262300,A
1435,"GROL02","Grobla",52.4067775400,16.9376870900,A
1436,"MOST01","Mostowa",52.4048703800,16.9396370600,A
1437,"WIEL01","Wielka",52.4088381400,16.9383157600,A
1438,"SOLN02","Solna",52.4119990900,16.9289280900,A
1439,"LIBE02","Libelta",52.4131215800,16.9202398300,A
1441,"WIKA01","Wielkopolska",52.4153339000,16.9179643600,A
1442,"WIKA02","Wielkopolska",52.4155811900,16.9180060800,A
1443,"NOGO02","Nowowiejskiego",52.4148221700,16.9196701800,A
1444,"NOGO01","Nowowiejskiego",52.4151953600,16.9196176500,A
1445,"URMA01","Urząd Marszałkowski",52.4152812800,16.9267934100,A
1446,"URMA02","Urząd Marszałkowski",52.4155021600,16.9262979400,A
1447,"PRNZ04","Przepadek",52.4190104000,16.9233086300,A
1448,"PRNZ02","Przepadek",52.4198483700,16.9216925100,A
1449,"ARPO01","Armii Poznań",52.4213823500,16.9229206700,A
1451,"ZERO01","Żeromskiego",52.4160765800,16.8921595300,A
1452,"ZERO02","Żeromskiego",52.4165557600,16.8918269900,A
1453,"ZERO06","Żeromskiego",52.4145537400,16.8907383800,A
1454,"KLIN02","Klin",52.4185597700,16.9137508000,A
1455,"KLIN01","Klin",52.4190371400,16.9135836600,A
1456,"SLAS01","Śląska",52.4242723400,16.9092110800,A
1457,"SLAS02","Śląska",52.4246233300,16.9078521100,A
1458,"NADW01","Nad Wierzbakiem",52.4207927400,16.9083536100,A
1459,"NADW02","Nad Wierzbakiem",52.4207392100,16.9086202400,A
1460,"SOCH02","Sochaczewska",52.4237774900,16.9142029800,A
1461,"OSSL01","Os. Słowiańskie",52.4251895000,16.9173173100,A
1462,"OSSL02","Os. Słowiańskie",52.4260718300,16.9178796000,A
1463,"URBA02","Urbanowska",52.4217549800,16.9196918200,A
1464,"KOSC01","Kościelna",52.4134830800,16.9040055500,A
1465,"KOSC02","Kościelna",52.4135688200,16.9046633600,A
1466,"JEZY01","Jeżycka",52.4162073700,16.9058398300,A
1467,"JEZY02","Jeżycka",52.4165408700,16.9067347000,A
1468,"OJAG01","Os. Jagiellońskie",52.3936171100,16.9562191900,A
1469,"OJAG02","Os. Jagiellońskie",52.3940101100,16.9564066300,A
1470,"PILS01","Piłsudskiego",52.3917749100,16.9530540900,A
1471,"PILS02","Piłsudskiego",52.3925968800,16.9513642700,A
1472,"OSWI01","Os. Oświecenia",52.3888455200,16.9587077100,A
1473,"OSWI02","Os. Oświecenia",52.3894777000,16.9585817900,A
1474,"INFL02","Inflancka",52.3855053400,16.9630183400,A
1475,"INFL01","Inflancka",52.3854562500,16.9643812900,A
1479,"LI01","Os. Lecha I",52.3878126200,16.9678225400,A
1480,"LI02","Os. Lecha I",52.3879597900,16.9684768100,A
1481,"MILC01","Milczańska",52.3852717900,16.9690716400,A
1482,"KRUS02","Krzywoustego",52.3844936500,16.9715807400,A
1483,"OCZ02","Os. Czecha",52.3866547500,16.9761445000,A
1484,"OCZ01","Os. Czecha",52.3861877100,16.9760848200,A
1485,"L II02","Os. Lecha II",52.3871198400,16.9711894800,A
1486,"SLEZ02","Ślężańska",52.3819065300,16.9734450200,A
1488,"LUBU02","Lubuszańska",52.3801333600,16.9744960100,A
1489,"CIII01","Os. Czecha III",52.3816205000,16.9785212800,A
1490,"CZII02","Os. Czecha II",52.3829634200,16.9761349900,A
1491,"CZII01","Os. Czecha II",52.3827317100,16.9761523400,A
1492,"PIAS01","Piaśnicka",52.3891528400,16.9793217100,A
1493,"PIAS02","Piaśnicka",52.3895226900,16.9791244300,A
1494,"Z I02","Żegrze I",52.3789789000,16.9622621700,A
1495,"Z I01","Żegrze I",52.3792237500,16.9617591600,A
1496,"Z II02","Żegrze II",52.3802130300,16.9656375000,A
1497,"Z II01","Żegrze II",52.3806624000,16.9655481400,A
1498,"ZIII02","Żegrze III",52.3833883200,16.9696139800,A
1499,"ZIII01","Żegrze III",52.3834942300,16.9691199700,A
1500,"ORGN02","Orle Gniazdo",52.3903790900,16.9764339100,A
1501,"ORGN01","Orle Gniazdo",52.3912558500,16.9756367900,A
1502,"PK02","Piaśnicka/Kurlandzka",52.3845809800,16.9868047300,A
1503,"PK01","Piaśnicka/Kurlandzka",52.3843560800,16.9867470100,A
1504,"OSZO01","Os. Zodiak",52.3912242300,16.9899634300,A
1505,"OSZO02","Os. Zodiak",52.3912530400,16.9883900100,A
1506,"RUSA01","Os. Rusa",52.3874996300,16.9912605800,A
1507,"RUSA02","Os. Rusa",52.3886043400,16.9913986800,A
1508,"SSZP04","Szwajcarska Szpital",52.3897853700,16.9940265500,A
1509,"SSZP01","Szwajcarska Szpital",52.3898759600,16.9925383700,A
1510,"SSZP02","Szwajcarska Szpital",52.3888784900,16.9921746500,A
1511,"SZCH01","Szwajcarska Centrum Handlowe",52.3844920000,16.9969169300,A
1512,"SZCH02","Szwajcarska Centrum Handlowe",52.3847915600,16.9970639400,A
1513,"FRWO01","Franowo",52.3818772300,17.0006787300,A
1514,"KRKI01","Krzywoustego Kinepolis",52.3742028400,16.9812218200,A
1515,"FRAN02","Giełda Ogrodnicza Franowo",52.3757783700,16.9857577600,A
1516,"TORW03","Torowa Wiadukt",52.3698336300,16.9881491600,A
1517,"LOPA02","Łopawska",52.3692128700,16.9933133300,A
1518,"LOPA01","Łopawska",52.3686399200,16.9934813700,A
1519,"TORW01","Torowa Wiadukt",52.3687141600,16.9879418500,A
1520,"TORW02","Torowa Wiadukt",52.3687452000,16.9882906500,A
1521,"LUGA02","Ługańska",52.3714685400,16.9954669000,A
1522,"LUGA01","Ługańska",52.3713299200,16.9945271000,A
1523,"WIEP02","Wieprawska",52.3688244000,17.0009231700,A
1524,"WIEP01","Wieprawska",52.3690562500,17.0002105900,A
1525,"RODA01","Rodawska",52.3633881200,16.9964427400,A
1526,"RODA02","Rodawska",52.3630699200,16.9967864700,A
1527,"URSZ02","Urszulanek",52.3653086800,16.9816911300,A
1528,"URSZ01","Urszulanek",52.3668445200,16.9833820900,A
1529,"SANT01","Sanocka",52.3611045100,16.9794658700,A
1530,"SANT02","Sanocka",52.3613348000,16.9797234700,A
1531,"STRA02","Strzyżowska",52.3546086000,16.9808282800,A
1532,"STRA01","Strzyżowska",52.3551592000,16.9806085400,A
1533,"POKR02","Pokrzywno",52.3507785100,16.9820619800,A
1534,"POKR01","Pokrzywno",52.3512813700,16.9816680600,A
1535,"NIZA02","Niżańska",52.3450729700,16.9846761800,A
1536,"NIZA01","Niżańska",52.3453880500,16.9843959600,A
1537,"JARO01","Jarosławska",52.3431891600,16.9853661000,A
1538,"JARO02","Jarosławska",52.3433902200,16.9854203600,A
1539,"KRNY01","Krzesiny",52.3411015200,16.9877945500,A
1540,"KRNY02","Krzesiny",52.3412578600,16.9881387800,A
1541,"KRSZ01","Krzesiny Szkoła",52.3411399600,16.9924082900,A
1542,"KRSZ02","Krzesiny Szkoła",52.3413112800,16.9919595400,A
1543,"KRWI01","Krzesiny Wiadukt",52.3399782700,16.9996564200,A
1544,"KRWI02","Krzesiny Wiadukt",52.3401477400,16.9993624100,A
1545,"SIEW02","Siewierska",52.3405578000,17.0054267300,A
1546,"SIEW01","Siewierska",52.3404211600,17.0054712800,A
1547,"TAKA02","Tarnowska",52.3419996500,17.0099534200,A
1548,"TAKA01","Tarnowska",52.3419793800,17.0102496800,A
1550,"ZEWI01","Żerniki/Wieś",52.3325153980,17.0575754228,B
1551,"CHRZ02","Chrzanowska",52.3468959600,17.0057443500,A
1552,"CHRZ01","Chrzanowska",52.3473471800,17.0053267100,A
1553,"OSNZ02","Ostrowska",52.3522132200,17.0027901000,A
1554,"OSNZ01","Ostrowska",52.3518593400,17.0028203800,A
1555,"SPKA02","Spławska",52.3567125100,17.0002986500,A
1556,"SPKA01","Spławska",52.3574831700,16.9996995800,A
1557,"PLON01","Plonowa",52.3549389300,17.0102529700,A
1559,"SPLA02","Spławie",52.3513448400,17.0228163600,A
1560,"OLIW02","Oliwkowa",52.3596445700,17.0199592400,A
1561,"OLIW01","Oliwkowa",52.3598241300,17.0193553100,A
1562,"GOSP03","Gospodarska",52.3557138000,17.0282243200,A
1563,"SZWO01","Szczepankowo",52.3645901000,17.0093816800,A
1564,"SZWO02","Szczepankowo",52.3647935200,17.0093752800,A
1567,"KOZAK02","Komorniki/Zakładowa Wirenka",52.3354303900,16.8084246300,B
1568,"KOZAK01","Komorniki/Zakładowa Wirenka",52.3352858900,16.8083921300,B
1569,"KOCEN02","Komorniki/Centrum",52.3355844500,16.8069646800,B
1570,"KOCEN01","Komorniki/Centrum",52.3354671700,16.8072777200,B
1571,"TARC01","Tarczowa",52.3776350000,16.8953637300,A
1572,"TARC02","Tarczowa",52.3781275800,16.8957220000,A
1573,"DRUZ02","Drużynowa",52.3803335100,16.8974728700,A
1574,"DRUZ01","Drużynowa",52.3808882200,16.8976649400,A
1575,"DMOW01","Dmowskiego",52.3870716600,16.8966194900,A
1576,"DMOW02","Dmowskiego",52.3874134900,16.8973474700,A
1577,"KOLE01","Kolejowa",52.3873329300,16.9028153600,A
1578,"KOLE02","Kolejowa",52.3871161600,16.9022027100,A
1579,"TECZ02","Tęczowa",52.3929166000,16.8786886700,A
1580,"TECZ01","Tęczowa",52.3932748800,16.8789906500,A
1581,"PROM01","Promienista",52.3959185900,16.8810509200,A
1582,"PROM02","Promienista",52.3961334600,16.8811480700,A
1583,"PALA01","Palacza",52.3883175400,16.8811340200,A
1584,"PALA02","Palacza",52.3897404200,16.8835120300,A
1585,"TRAU01","Traugutta",52.3855467800,16.9138131100,A
1586,"TRAU02","Traugutta",52.3844670500,16.9153047500,A
1587,"WSNZ01","Wspólna I",52.3765997300,16.9137443900,A
1589,"WSNZ04","Wspólna I",52.3772171100,16.9128203100,A
1590,"IPNZ01","IPN",52.3798476600,16.9145805300,A
1591,"IPNZ02","IPN",52.3795993700,16.9145704300,A
1592,"ROLN02","Rolna",52.3830378700,16.9170866100,A
1593,"ROLN01","Rolna",52.3830106300,16.9168849600,A
1596,"PAMI72","Pamiątkowa",52.3871448400,16.9166088200,A
1597,"PAMI71","Pamiątkowa",52.3871000200,16.9161885900,A
1598,"ROBO01","Robocza",52.3881451000,16.9109422700,A
1599,"ROBO02","Robocza",52.3882063900,16.9113507000,A
1600,"ZNTK02","ZNTK",52.3922926000,16.9138117600,A
1601,"ZNTK01","ZNTK",52.3920746900,16.9133832500,A
1602,"BERG01","Bergera",52.3940352200,16.9158069100,A
1603,"BERG02","Bergera",52.3946092400,16.9168133500,A
1605,"NIED02","Niedziałkowskiego",52.3985267800,16.9186741700,A
1608,"NIEZ02","Niezłomnych",52.4030230600,16.9208396200,A
1609,"KART01","Kartuska",52.4539337000,16.8798292600,A
1610,"KART02","Kartuska",52.4526561500,16.8812256300,A
1611,"LUBI01","Lubieńska",52.4483935200,16.8863468000,A
1612,"LUBI02","Lubieńska",52.4491936600,16.8853455800,A
1613,"DZIA01","Dziadoszańska",52.3771225000,16.9692176000,A
1614,"DZIA02","Dziadoszańska",52.3776499100,16.9710129600,A
1615,"CZ I02","Os. Czecha I",52.3824873200,16.9819436900,A
1616,"CZ I01","Os. Czecha I",52.3829141900,16.9832447700,A
1617,"FRWO02","Franowo",52.3814452700,17.0014651600,A
1618,"ZYNA01","Żywiczna",52.3906406100,17.0345301200,A
1619,"RJEZ71","Rynek Jeżycki",52.4122357000,16.9039574100,A
1620,"RJEZ72","Rynek Jeżycki",52.4120324500,16.9035799100,A
1622,"ZAME33","Zamek",52.4076258300,16.9168871100,A
1623,"CMEN02","Gnieźnieńska/Cmentarz",52.4255898600,16.9946559500,A
1624,"OPIA01","Os. Piastowskie",52.3909189300,16.9472103000,A
1625,"OPIA02","Os. Piastowskie",52.3918146400,16.9483015900,A
1626,"ORZE01","Os. Rzeczypospolitej",52.3851180600,16.9444212900,A
1627,"ORZE02","Os. Rzeczypospolitej",52.3859543100,16.9454856500,A
1628,"AWF01","AWF",52.3982485100,16.9348113200,A
1629,"GLHE02","Głogowska/Hetmańska",52.3902373200,16.8933198200,A
1630,"GLHE01","Głogowska/Hetmańska",52.3905333300,16.8934472500,A
1631,"GLHE72","Głogowska/Hetmańska",52.3906050800,16.8948032700,A
1632,"WYKO01","Wykopy",52.3712425878,16.8635577369,A
1634,"KONOW04","Komorniki/Nowa",52.3380680800,16.8165677600,B
1635,"KOJEZ03","Komorniki/Jeziorna",52.3305535900,16.8032339700,B
1636,"REMO02","Rezerwat Morasko",52.4879355700,16.8974506500,A
1637,"REMO01","Rezerwat Morasko",52.4878970700,16.8976977800,A
1648,"KINZ01","Krzesinki",52.3402166400,17.0125720900,A
1649,"PJNZ01","Podjaryszki",52.3377043700,17.0150863200,A
1650,"PANZ01","Porzeczkowa",52.3616272900,17.0155978600,A
1651,"PANZ02","Porzeczkowa",52.3623172300,17.0144106500,A
1653,"TEMA01","Termy Maltańskie",52.4055228300,16.9759399300,A
1657,"SOLN01","Solna",52.4116894100,16.9286558400,A
1658,"MILO02","Miłostowo",52.4105284700,17.0042454800,A
1659,"PUST02","Pusta",52.4102556400,16.9958114800,A
1660,"LOMZ02","Łomżyńska",52.4098753300,16.9851653500,A
1661,"TERM02","Termalna",52.4094559300,16.9730751400,A
1664,"STOI03","Stoińskiego",52.4509892700,16.9263428300,A
1665,"GABA04","Garbary",52.4167634300,16.9391277100,A
1667,"POLW02","Półwiejska",52.3997682900,16.9283692100,A
1669,"SOB26","Os. Sobieskiego",52.4652405040,16.9163750563,A
1670,"RRAT04","Rondo Rataje",52.3968384400,16.9513342000,A
1671,"GWAR02","Gwarna",52.4074689700,16.9211130600,A
1675,"LUNIE02","Luboń/Niepodległości",52.3489519922,16.8908887443,B
1676,"BAKA03","Baraniaka",52.4032123900,16.9542642700,A
1677,"RRAT02","Rondo Rataje",52.3939675600,16.9496354700,A
1678,"SZYN03","Strzeszyn",52.4519498500,16.8486167600,A
1680,"ROLN04","Rolna",52.3838415000,16.9182885600,A
1681,"ROLN03","Rolna",52.3843438100,16.9170321200,A
1682,"HEWI03","Hetmańska Wiadukt",52.3829946800,16.9281884600,A
1683,"HEWI04","Hetmańska Wiadukt",52.3827155400,16.9280438000,A
1684,"PONZ02","Polska",52.4204009500,16.8728458900,A
1685,"WIMO01","Wilków Morskich",52.4779998300,16.7812816100,A
1686,"DWZA42","Dworzec Zachodni",52.4011437400,16.9100521100,A
1687,"DWZA41","Dworzec Zachodni",52.4011157600,16.9102571900,A
1690,"GORC41","Górczyn",52.3814366000,16.8810077200,A
1691,"GORC42","Górczyn",52.3810061700,16.8812332000,A
1692,"TO I71","Towarowa",52.4067627000,16.9170955800,A
1693,"TO I42","Towarowa",52.4067142700,16.9172526600,A
1694,"KRAS42","Kraszewskiego",52.4089536100,16.9033531800,A
1695,"KRAS41","Kraszewskiego",52.4091315800,16.9028608300,A
1696,"ZEYL42","Zeylanda",52.4081887500,16.9087997900,A
1697,"ZEYL41","Zeylanda",52.4082919200,16.9086570300,A
1699,"BUDZ41","Budziszyńska",52.3885462000,16.8497230600,A
1700,"BUDZ42","Budziszyńska",52.3884567400,16.8498179200,A
1701,"SMGO42","Smoluchowskiego",52.3898352000,16.8538765600,A
1702,"SMGO41","Smoluchowskiego",52.3901366400,16.8543457700,A
1703,"CMNA41","Cmentarna",52.3851815900,16.8390540000,A
1704,"CMNA42","Cmentarna",52.3850653100,16.8391843000,A
1705,"GROT71","Grotkowska",52.3865628400,16.8439037400,A
1706,"GROT72","Grotkowska",52.3865437000,16.8441191000,A
1707,"JUNI42","Junikowo",52.3834200000,16.8345000000,A
1708,"JUNI43","Junikowo",52.3838300000,16.8356600000,A
1709,"JUNI41","Junikowo",52.3836600000,16.8338300000,A
1710,"ZAME42","Zamek",52.4072200000,16.9191900000,A
1713,"PAWI01","Park Wilsona",52.3977946000,16.9006677700,A
1714,"PAWI02","Park Wilsona",52.3981793400,16.9023767200,A
1717,"DWZA02","Dworzec Zachodni",52.4009897700,16.9097960300,A
1718,"ULAN02","Ułańska",52.3992367700,16.8944296200,A
1719,"ULAN01","Ułańska",52.3991892000,16.8941675000,A
1720,"POGL42","Poznań Główny",52.4029387600,16.9149992700,A
1721,"POGL41","Poznań Główny",52.4030270500,16.9150742200,A
1722,"POGL73","Poznań Główny",52.4036499300,16.9163628400,A
1723,"POGL74","Poznań Główny",52.4037704900,16.9165050900,A
1724,"POGL03","Poznań Główny",52.4016093600,16.9156987800,A
1725,"POGL04","Poznań Główny",52.4008868500,16.9146267500,A
1726,"NIED01","Niedziałkowskiego",52.3983500500,16.9185236700,A
1732,"GOSP01","Gospodarska",52.3550263100,17.0281817100,A
1733,"GOSP02","Gospodarska",52.3552064000,17.0285241700,A
1734,"JUST01","Junikowo Stacja",52.3783512300,16.8261858800,A
1735,"JUST02","Junikowo Stacja",52.3786973279,16.8268704343,A
1736,"PLWOL02","Plewiska/Wołczyńska",52.3758730300,16.8227527000,B
1737,"PLWOL01","Plewiska/Wołczyńska",52.3763375800,16.8235693800,B
1738,"PLSLO02","Plewiska/Słoneczna",52.3663613300,16.8319087700,B
1739,"PLSLO01","Plewiska/Słoneczna",52.3662569200,16.8307937300,B
1740,"PLPOD02","Plewiska/Podgórna",52.3665765900,16.8247110000,B
1741,"PLPOD01","Plewiska/Podgórna",52.3661878100,16.8249950100,B
1742,"PLZCH02","Plewiska/Zachodnia",52.3693986600,16.8210504700,B
1743,"PLZCH01","Plewiska/Zachodnia",52.3694219400,16.8211310500,B
1744,"PLRYN01","Plewiska/Rynek",52.3686891100,16.8127774200,B
1745,"PLRYN02","Plewiska/Rynek",52.3694412800,16.8137228500,B
1746,"PLSKR01","Plewiska/Skryta",52.3716588700,16.8169676000,B
1747,"PLSKR02","Plewiska/Skryta",52.3717857300,16.8170255900,B
1748,"PLSTP01","Plewiska/Straż Pożarna",52.3653270100,16.8079950400,B
1749,"PLSTP02","Plewiska/Straż Pożarna",52.3653363700,16.8078368100,B
1750,"PLBOI02","Plewiska/Boisko",52.3669475600,16.8024058000,B
1751,"PLBOI01","Plewiska/Boisko",52.3683306607,16.8008823651,B
1752,"PLENE02","Plewiska/Stacja Energetyczna",52.3711354000,16.7810500900,B
1753,"GSPET01","Gołuski/Pętla",52.3613408600,16.7570684300,C
1754,"GSSZK01","Gołuski/Szkolna",52.3580989700,16.7530514700,C
1755,"GSSZK02","Gołuski/Szkolna",52.3579649800,16.7528569100,C
1756,"GLSPO02","Głuchowo/Spokojna",52.3488527775,16.7725478434,C
1757,"GLSPO01","Głuchowo/Spokojna",52.3487174844,16.7718837531,C
1758,"GLSTW04","Głuchowo/Stawna",52.3465437186,16.7688141799,C
1759,"GLTEC02","Głuchowo/Tęczowa",52.3449020487,16.7761782040,C
1760,"GLTEC01","Głuchowo/Tęczowa",52.3448479266,16.7770193851,C
1761,"KOTOP01","Komorniki/Topolowa",52.3403201000,16.7950742600,B
1762,"KOTOP02","Komorniki/Topolowa",52.3399213800,16.7961222600,B
1763,"KOKSM01","Komorniki/Ks.Malinowskiego",52.3392363200,16.8004527700,B
1764,"KOKSM02","Komorniki/Ks.Malinowskiego",52.3395108200,16.8004001400,B
1765,"KOKSW01","Komorniki/Ks.Wawrzyniaka",52.3471480900,16.8034285300,B
1766,"KOKSW02","Komorniki/Ks.Wawrzyniaka",52.3470874600,16.8032274800,B
1767,"PLSKO01","Plewiska/Szkolna",52.3577726400,16.8073671600,B
1768,"PLSKO02","Plewiska/Szkolna",52.3572488300,16.8070922200,B
1769,"PLKOS01","Plewiska/Kościół",52.3619861100,16.8082295700,B
1770,"PLSZK02","Plewiska/Szkoła",52.3627062100,16.8074794900,B
1771,"PLSZK01","Plewiska/Szkoła",52.3629833600,16.8072526900,B
1772,"MT41","Most Teatralny",52.4100216300,16.9131850300,A
1773,"RKAP74","Rondo Kaponiera",52.4077451000,16.9136199900,A
1774,"RKAP73","Rondo Kaponiera",52.4076135300,16.9134023000,A
1775,"RKAP71","Rondo Kaponiera",52.4084075000,16.9124949600,A
1776,"RKAP72","Rondo Kaponiera",52.4083727700,16.9127450800,A
1777,"NOKO02","Nowe Kotowo",52.3623529459,16.8536996845,A
1778,"NOKO03","Nowe Kotowo",52.3624975300,16.8525441700,A
1781,"KONOW02","Komorniki/Nowa",52.3388038837,16.8148430201,B
1782,"MODL02","Modlibowskiej ",52.3545116100,16.8487692800,A
1783,"KONOW01","Komorniki/Nowa",52.3392549602,16.8157284739,B
1784,"KOMAG02","Komorniki/Magazynowa",52.3454522855,16.8273869490,B
1785,"KOMAG01","Komorniki/Magazynowa",52.3458221129,16.8285232814,B
1786,"KNPET02","Konarzewo/Pętla",52.3347636800,16.7172029700,C
1787,"KNOSL01","Konarzewo/Os. 25-lecia",52.3349416700,16.7229043900,C
1788,"KNOSL02","Konarzewo/Os. 25-lecia",52.3345553200,16.7245063000,C
1789,"COSZK01","Chomęcice/Szkoła",52.3336658300,16.7407826600,C
1790,"COSZK02","Chomęcice/Szkoła",52.3336077300,16.7408126300,C
1791,"COSRD01","Chomęcice/Środkowa",52.3315831300,16.7464038700,C
1792,"COSRD02","Chomęcice/Środkowa",52.3315679200,16.7465379500,C
1793,"COPOD02","Chomęcice/Podgórna",52.3300942700,16.7606222500,C
1794,"COPOD01","Chomęcice/Podgórna",52.3300548500,16.7610455800,C
1795,"RSROS01","Rosnowo/",52.3252390600,16.7822946900,C
1796,"RSROS02","Rosnowo/",52.3256300000,16.7803300000,C
1797,"RSROS04","Rosnowo/",52.3248815700,16.7808619500,C
1798,"RSROS03","Rosnowo/",52.3249722000,16.7811346500,C
1799,"WABRZ02","Walerianowo/Brzozowa",52.3199718459,16.7744072964,C
1800,"WABRZ01","Walerianowo/Brzozowa",52.3188346286,16.7735366002,C
1801,"SZDWO01","Szreniawa/Dworcowa",52.3186450896,16.7936954318,C
1802,"SZDWO03","Szreniawa/Dworcowa",52.3186180125,16.7921754027,C
1803,"SZDWO02","Szreniawa/Dworcowa",52.3178147185,16.7930608565,C
1804,"SZNOW01","Szreniawa/Nowa",52.3136806826,16.7900207985,C
1805,"ROSTW02","Rosnówko/Stawnego",52.2993981384,16.7725330859,C
1806,"ROSTW01","Rosnówko/Stawnego",52.2996148486,16.7719575409,C
1807,"RODKU02","Rosnówko/Dom Kultury",52.3039849444,16.7627045486,C
1808,"RODKU01","Rosnówko/Dom Kultury",52.3044454046,16.7622765793,C
1809,"WABUK01","Walerianowo/Bukowa",52.3149714820,16.7704375119,C
1810,"WABUK02","Walerianowo/Bukowa",52.3145562640,16.7701128455,C
1811,"KOJEZ02","Komorniki/Jeziorna",52.3294114256,16.8016645160,B
1812,"KOJEZ01","Komorniki/Jeziorna",52.3313424108,16.8031550299,B
1813,"POGL00","Poznań Główny",52.4029221300,16.9138638200,A
1814,"SYNZ02","Sycowska II",52.3614846600,16.8366733400,A
1819,"WIII04","Wilczak II",52.4307468300,16.9515943800,A
1820,"MRCI02","Marcinkowskiego",52.4088969900,16.9290148500,A
1821,"PWSZK02","Pawłowice/Pętla",52.4952270100,16.7968397700,B
1822,"PWPAW02","Pawłowice/Pawłowicka",52.4878779600,16.7987427900,B
1823,"PWPAW01","Pawłowice/Pawłowicka",52.4879881900,16.7987727600,B
1824,"KICZY02","Kiekrz/Czysta",52.4834942500,16.7934179500,B
1825,"KICZY01","Kiekrz/Czysta",52.4823980400,16.7916687200,B
1826,"TURY01","Turystyczna",52.4824683200,16.7805179400,A
1827,"TURY02","Turystyczna",52.4826084600,16.7803631700,A
1829,"CECME01","Czerwonak/Cmentarz",52.4581666900,16.9955009300,B
1830,"KCPET01","Kicin/Pętla",52.4655540800,17.0205516500,B
1831,"KCSZK01","Kicin/Szkoła",52.4629347900,17.0185013200,B
1832,"KCSZK02","Kicin/Szkoła",52.4634316700,17.0189726200,B
1833,"KCJON01","Kicin/Jonschera",52.4576270600,17.0168938300,B
1834,"KCJON02","Kicin/Jonschera",52.4574087500,17.0166881500,B
1835,"KZDZI01","Koziegłowy/Działki",52.4496473600,17.0030254700,B
1836,"KZDZI02","Koziegłowy/Działki",52.4505777400,17.0051675000,B
1837,"DKSZK01","Dąbrówka/Szkoła",52.3760324300,16.7391836400,C
1838,"KISAN02","Kiekrz/Sanktuarium",52.4872155000,16.7767125000,B
1839,"KISAN01","Kiekrz/Sanktuarium",52.4877368500,16.7763700000,B
1840,"KIZIE02","Kiekrz/Zielona",52.4919982200,16.7728699100,B
1841,"KIZIE01","Kiekrz/Zielona",52.4925451800,16.7725451600,B
1842,"KISTA02","Kiekrz/Starzyńska",52.4969236000,16.7690681300,B
1843,"KISTA01","Kiekrz/Starzyńska",52.4973581600,16.7688430500,B
1844,"STPET01","Starzyny/Rynkowa",52.4929836760,16.7557832514,B
1845,"RKGOL02","Rokietnica/Golęcińska",52.5044872100,16.7610926700,B
1846,"RKGOL01","Rokietnica/Golęcińska",52.5052187500,16.7593708900,B
1847,"RKROL02","Rokietnica/Rolna",52.5074927200,16.7553704500,B
1848,"RKROL01","Rokietnica/Rolna",52.5076521200,16.7554776000,B
1849,"RKSTA01","Rokietnica/Stacja",52.5114107900,16.7537828000,B
1850,"RKSTA02","Rokietnica/Stacja",52.5118883300,16.7524621800,B
1851,"RKROS03","Rokietnica/ROS",52.5123330300,16.7436003800,B
1852,"RKROS04","Rokietnica/ROS",52.5123930300,16.7420143000,B
1853,"RKROS02","Rokietnica/ROS",52.5126800500,16.7423732100,B
1854,"RKROS01","Rokietnica/ROS",52.5128621600,16.7424343000,B
1855,"RKSZK01","Rokietnica/Szkoła",52.5100238900,16.7401691700,B
1856,"RKSZK02","Rokietnica/Szkoła",52.5098583400,16.7401864200,B
1857,"KICZE02","Kiekrz/Czereśniowa",52.4987834900,16.7504222400,B
1858,"RKKAL02","Rokietnica/Os. Kalinowe",52.5042358400,16.7433414100,B
1859,"RKKAL01","Rokietnica/Os. Kalinowe",52.5050900300,16.7419787600,B
1860,"PBPET02","Przybroda/Pętla",52.5206125000,16.6557476600,B
1861,"PBKOL02","Przybroda/Kolejowa",52.5205479100,16.6630105800,B
1862,"PBKOL01","Przybroda/Kolejowa",52.5205957900,16.6629599100,B
1863,"CRPRZ01","Cerekwica/Przybrodzka",52.5187811800,16.6909325200,B
1864,"CRPRZ02","Cerekwica/Przybrodzka",52.5187415600,16.6909824600,B
1865,"MRSZA02","Mrowino/Szkoła",52.5132105000,16.6996795400,B
1866,"MRSZA01","Mrowino/Szkoła",52.5136633700,16.6986138600,B
1868,"MRSZA04","Mrowino/Szkoła",52.5143312600,16.6985976700,B
1869,"MRTOW02","Mrowino/Towarowa",52.5059881100,16.7069127600,B
1870,"MRTOW01","Mrowino/Towarowa",52.5069663000,16.7064720600,B
1871,"MRKOP02","Mrowino/Kopernika",52.5125451600,16.7024902400,B
1872,"MRPAR02","Mrowino/Park",52.5179515200,16.7051639000,B
1873,"MRPAR01","Mrowino/Park",52.5180287100,16.7053599400,B
1874,"MRGNI01","Mrowino/Gniewka",52.5150124100,16.7196945800,B
1875,"MRGNI02","Mrowino/Gniewka",52.5153794900,16.7185506800,B
1876,"MRLES01","Mrowino/Leszka",52.5137826900,16.7253388000,B
1877,"MRLES02","Mrowino/Leszka",52.5138104400,16.7246448500,B
1878,"RKTRA02","Rokietnica/Trakt Napoleoński",52.5129754200,16.7314301600,B
1879,"RKTRA01","Rokietnica/Trakt Napoleoński",52.5131591300,16.7310942900,B
1880,"RKLES02","Rokietnica/Leśna",52.5035552800,16.7356809000,B
1881,"RKLES01","Rokietnica/Leśna",52.5037768500,16.7356568700,B
1882,"NASTA02","Napachanie/Starzyńska",52.4892227700,16.7315641400,B
1883,"NASTA01","Napachanie/Starzyńska",52.4893756900,16.7315254300,B
1884,"NAPAR01","Napachanie/Park",52.4863500000,16.7281500000,B
1885,"NAPAR02","Napachanie/Park",52.4862900000,16.7282300000,B
1886,"RKMIC02","Rokietnica/Mickiewicza",52.5159209100,16.7394621600,B
1887,"RKMIC01","Rokietnica/Mickiewicza",52.5158567900,16.7396183900,B
1888,"KSKOS02","Krzyszkowo/Koszycy",52.5186891100,16.7367092100,B
1889,"KSKOS01","Krzyszkowo/Koszycy",52.5190010700,16.7364900100,B
1890,"KSPET02","Krzyszkowo/Pętla",52.5242490756,16.7312266659,B
1891,"RKBOC02","Rokietnica/Boczna",52.5180689000,16.7454575800,B
1892,"RKBOC01","Rokietnica/Boczna",52.5184315700,16.7457890700,B
1893,"RTJOD02","Rostworowo/Jodłowa",52.5246939200,16.7500714500,B
1894,"RTJOD01","Rostworowo/Jodłowa",52.5248661000,16.7502724200,B
1895,"RTSOB02","Rostworowo/Sobocka",52.5370198100,16.7587170600,B
1896,"RTSOB01","Rostworowo/Sobocka",52.5373891300,16.7591202400,B
1897,"ZYSWI02","Żydowo/Świetlica",52.5461983200,16.7546028600,B
1898,"ZYSWI01","Żydowo/Świetlica",52.5467373500,16.7543667500,B
1904,"ZYPET02","Żydowo/Pętla",52.5472268800,16.7512925000,B
1905,"ZYPET01","Żydowo/Pętla",52.5472827900,16.7519406500,B
1906,"ZYPET03","Żydowo/Pętla",52.5470043500,16.7510458300,B
1907,"PCPET02","Przecław/Pętla",52.5512198700,16.7136125900,C
1908,"RKNOB01","Rokietnica/Noblistów",52.5089090400,16.7370754200,B
1909,"RKNOB02","Rokietnica/Noblistów",52.5095724700,16.7364642300,B
1910,"RKSPO01","Rokietnica/Spokojna",52.5139066200,16.7602349300,B
1911,"RKSPO02","Rokietnica/Spokojna",52.5138533200,16.7602602900,B
1912,"RKTOP01","Rokietnica/Topolowa",52.5147635200,16.7652208100,B
1913,"RKTOP02","Rokietnica/Topolowa",52.5146909600,16.7651400500,B
1914,"BYPOR02","Bytkowo/Porzeczkowa",52.5161563000,16.7720989300,B
1915,"BYPOR01","Bytkowo/Porzeczkowa",52.5161970300,16.7719880400,B
1916,"BYPAW01","Bytkowo/Pawłowicka",52.5171383200,16.7752571300,B
1917,"BYPAW02","Bytkowo/Pawłowicka",52.5179181100,16.7770482300,B
1918,"SOSAN02","Sobota/Sanktuarium",52.5223346500,16.7988325000,B
1919,"SOSAN01","Sobota/Sanktuarium",52.5225534100,16.7978945500,B
1920,"SOKAS01","Sobota/Kasztanowa",52.5209760900,16.8035649400,B
1921,"SOKAS02","Sobota/Kasztanowa",52.5212223000,16.8028219700,B
1922,"SOPOZ01","Sobota/POZ BRUK",52.5166395300,16.8137192000,B
1923,"SOPOZ02","Sobota/POZ BRUK",52.5169601900,16.8128209900,B
1924,"ZOLIP02","Złotkowo/Lipowa",52.5071870500,16.8349642400,B
1925,"ZOLIP01","Złotkowo/Lipowa",52.5080628500,16.8348496000,B
1928,"WYWAR01","Wysogotowo/Warzywna",52.4012508100,16.7911788600,B
1929,"WYWAR02","Wysogotowo/Warzywna",52.4022543700,16.7904894300,B
1930,"WYPKN01","Wysogotowo/Piękna",52.4054125200,16.7865839100,B
1931,"WYPKN02","Wysogotowo/Piękna",52.4059193300,16.7861267700,B
1932,"WYDLU01","Wysogotowo/Długa",52.4098584800,16.7798581200,B
1934,"WYWIE03","Wysogotowo/Wierzbowa",52.4137947000,16.7773217100,B
1935,"WYZBO02","Wysogotowo/Zbożowa",52.4170901100,16.7751749500,B
1936,"WYZBO01","Wysogotowo/Zbożowa",52.4178391600,16.7746632200,B
1937,"PMBRZ01","Przeźmierowo/Brzozowa",52.4197678200,16.7747521900,B
1938,"PMBRZ02","Przeźmierowo/Brzozowa",52.4198882200,16.7745052700,B
1939,"PMOLS02","Przeźmierowo/Kasztanowa",52.4184027000,16.7791018800,B
1940,"PMOLS01","Przeźmierowo/Kasztanowa",52.4188783900,16.7778621400,B
1941,"PMCME01","Przeźmierowo/Cmentarz",52.4168795000,16.7870727600,B
1942,"PMCME02","Przeźmierowo/Cmentarz",52.4170043100,16.7881303600,B
1943,"PMKRA02","Przeźmierowo/Krańcowa",52.4210581653,16.7876891035,B
1944,"PMKRA01","Przeźmierowo/Krańcowa",52.4215714351,16.7874382249,B
1945,"PMKOS02","Przeźmierowo/Kościelna",52.4253172234,16.7856673173,B
1946,"PMKOS01","Przeźmierowo/Kościelna",52.4261815909,16.7852688631,B
1951,"BNRUB01","Baranowo/Os. Rubinowe",52.4290086745,16.7999231235,B
1952,"WICH03","Wichrowa",52.4324567508,16.8077446321,A
1953,"BNPRZ01","Baranowo/Przemysława",52.4341041698,16.7962189751,B
1954,"BNPRZ02","Baranowo/Przemysława",52.4339241270,16.7961599449,B
1955,"PMWIA03","Przeźmierowo/Wiadukt",52.4363636444,16.7866855892,B
1956,"PMWIA01","Przeźmierowo/Wiadukt",52.4356255021,16.7863609228,B
1957,"PMWIA02","Przeźmierowo/Wiadukt",52.4354184600,16.7863166501,B
1958,"PMLES02","Przeźmierowo/Leśna",52.4310613477,16.7829814407,B
1959,"PMLES01","Przeźmierowo/Leśna",52.4315745011,16.7827453197,B
1960,"PMWYS01","Przeźmierowo/Wysogotowska",52.4363947800,16.7726737900,B
1961,"PMWYS02","Przeźmierowo/Wysogotowska",52.4358981700,16.7726886200,B
1962,"SWWIA01","Swadzim/Wiadukt",52.4410449100,16.7532104500,B
1963,"SWWIA02","Swadzim/Wiadukt",52.4400425900,16.7560702000,B
1964,"SWKLA01","Swadzim/Kładka",52.4415025500,16.7475773700,B
1965,"SWKLA02","Swadzim/Kładka",52.4411957800,16.7470674700,B
1966,"SWAUC01","Swadzim/Auchan",52.4390070100,16.7634412500,B
1967,"SWAUC02","Swadzim/Auchan",52.4414867500,16.7626139200,B
1968,"SAWIA01","Sady/Wiadukt",52.4487056400,16.7246752600,C
1969,"SAWIA02","Sady/Wiadukt",52.4487345900,16.7233684400,C
1971,"SAJAG01","Sady/Szkolna (Jagodowa)",52.4476232821,16.7222245523,C
1973,"TPMAR01","Tarnowo Pdg/Marianowska",52.4549380500,16.7018251900,C
1974,"TPMAR02","Tarnowo Pdg/Marianowska",52.4543602000,16.7016685800,C
1975,"TPDZI01","Tarnowo Pdg/Działkowa",52.4576954700,16.6905986000,C
1976,"TPDZI02","Tarnowo Pdg/Działkowa",52.4572864100,16.6910767000,C
1977,"BTSKO01","Batorowo/Skośna",52.4205433700,16.7682026400,C
1978,"BTSKO02","Batorowo/Skośna",52.4204711500,16.7683790100,C
1979,"BTBAT02","Batorowo/Batorowska",52.4211329400,16.7546509600,C
1980,"BTBAT01","Batorowo/Batorowska",52.4213294100,16.7539934300,C
1981,"BTWID02","Batorowo/Widok",52.4218247400,16.7458164300,C
1982,"BTWID01","Batorowo/Widok",52.4218991500,16.7463578200,C
1983,"BTPOR01","Batorowo/Poranek",52.4219326200,16.7396233700,C
1984,"BTPOR02","Batorowo/Poranek",52.4218438200,16.7399436000,C
1985,"BTBRZ01","Batorowo/Brzask",52.4227555400,16.7322823100,C
1986,"BTBRZ02","Batorowo/Brzask",52.4227121100,16.7321550700,C
1987,"BTZAK01","Batorowo/Zakrzewska",52.4241627600,16.7197013400,C
1988,"BTZAK02","Batorowo/Zakrzewska",52.4241047600,16.7197069900,C
1989,"LWBOC02","Lusowo/Boczna",52.4214597900,16.7179080400,C
1990,"LWBOC01","Lusowo/Boczna",52.4216198200,16.7179949900,C
1991,"LWGRZ01","Lusowo/Grzybowa",52.4190489600,16.7181421800,C
1992,"LWGRZ02","Lusowo/Grzybowa",52.4192304600,16.7180372500,C
1993,"LWPRZ02","Lusowo/Przylesie",52.4147259600,16.7183040000,C
1994,"LWPRZ01","Lusowo/Przylesie",52.4147719400,16.7183908600,C
1995,"ZKBUK03","Zakrzewo/Bukowska",52.4060262400,16.7173872600,C
1996,"ZKZAK02","Zakrzewo/Zakrzewska",52.4057497300,16.7099908500,C
1997,"ZKZAK01","Zakrzewo/Zakrzewska",52.4057159600,16.7088567200,C
1998,"ZKINS01","Zakrzewo/Instytut",52.4060460100,16.7029056000,C
1999,"ZKINS02","Zakrzewo/Instytut",52.4062473300,16.7013485100,C
2000,"SIKSZ02","Sierosław/Kasztanowa",52.4035058900,16.6744881500,C
2001,"SIKSZ01","Sierosław/Kasztanowa",52.4036464500,16.6764207800,C
2002,"SIPRO02","Sierosław/Prosta",52.4021933200,16.6670028300,C
2003,"SIPRO01","Sierosław/Prosta",52.4026089100,16.6700099800,C
2004,"SIDZI01","Sierosław/Działki",52.4016946000,16.6657545600,C
2005,"LWOTO02","Lusowo/Otowska",52.4259554000,16.7150521600,C
2006,"LWOTO01","Lusowo/Otowska",52.4264903500,16.7142736700,C
2007,"LWSWA02","Lusowo/Swadzimska",52.4313566400,16.7057244400,C
2008,"LWSWA01","Lusowo/Swadzimska",52.4314809700,16.7056440400,C
2009,"LWSZK02","Lusowo/Szkoła",52.4333192800,16.7017828600,C
2010,"LWSZK01","Lusowo/Szkoła",52.4334365700,16.7019049900,C
2011,"LWKOS01","Lusowo/Kościół",52.4329532300,16.6980826400,C
2012,"SALIP01","Sady/Lipowa",52.4436480300,16.7184648700,C
2013,"SALIP02","Sady/Lipowa",52.4435741600,16.7184906900,C
2016,"BNKLO01","Baranowo/Klonowa",52.4417193066,16.7856525597,B
2017,"BNKLO02","Baranowo/Klonowa",52.4437623876,16.7858444080,B
2018,"BNUNP01","Baranowo/Uniwersytet Przyrodniczy",52.4490001626,16.7835717433,B
2019,"BNUNP02","Baranowo/Uniwersytet Przyrodniczy",52.4477762710,16.7848999240,B
2020,"CYCDR02","Chyby/Cedrowa",52.4522397117,16.7746729326,B
2021,"CYCDR01","Chyby/Cedrowa",52.4525366584,16.7739202968,B
2022,"CYJOD02","Chyby/Jodłowa",52.4571165834,16.7658331521,B
2023,"CYJOD01","Chyby/Jodłowa",52.4575304627,16.7652723647,B
2024,"CYLIP02","Chyby/Lipowa",52.4602565710,16.7625127003,B
2025,"CYLIP01","Chyby/Lipowa",52.4607333976,16.7620994885,B
2026,"WLKE02","Wielkie",52.4650515927,16.7594136120,B
2027,"WLKE01","Wielkie",52.4653484530,16.7592217637,B
2028,"KBLIP02","Kobylniki/Lipowa",52.4722206602,16.7491423479,B
2029,"KBLIP01","Kobylniki/Lipowa",52.4725984206,16.7485077727,B
2032,"NAKOB02","Napachanie/Kobylnicka",52.4841275465,16.7291606071,B
2033,"NAKOB01","Napachanie/Kobylnicka",52.4844692373,16.7284227289,B
2034,"NAKOK02","Napachanie/Kokoszczyńska",52.4837319011,16.7188007976,B
2035,"NAKOK01","Napachanie/Kokoszczyńska",52.4841994816,16.7197305240,B
2036,"TPKAR01","Tarnowo Pdg/Karolewo III",52.4744062289,16.7012983274,C
2037,"TPKAR02","Tarnowo Pdg/Karolewo III",52.4747929644,16.7019329026,C
2038,"TPKAW01","Tarnowo Pdg/Karolewo II",52.4720497675,16.6955133625,C
2039,"TPKAW02","Tarnowo Pdg/Karolewo II",52.4720947394,16.6960298772,C
2040,"TPKAI01","Tarnowo Pdg/Karolewo I",52.4688476559,16.6838991601,C
2041,"TPKAI02","Tarnowo Pdg/Karolewo I",52.4691534857,16.6846222807,C
2042,"TPCZE02","Tarnowo Pdg/Czereśniowa",52.4664911900,16.6764292300,C
2043,"TPCZE01","Tarnowo Pdg/Czereśniowa",52.4666075600,16.6757365800,C
2044,"TPKRO01","Tarnowo Pdg/Krótka",52.4603064100,16.6802829900,C
2045,"TPROL02","Tarnowo Pdg/Rolna",52.4622162200,16.6728974400,C
2046,"TPROL01","Tarnowo Pdg/Rolna",52.4627846300,16.6713136300,C
2047,"TPCEN01","Tarnowo Pdg/Centrum",52.4642509200,16.6649831400,C
2048,"TPCEN02","Tarnowo Pdg/Centrum",52.4642589300,16.6639011600,C
2049,"TPNOW01","Tarnowo Pdg/Nowa",52.4623990300,16.6552319600,C
2050,"TPNOW02","Tarnowo Pdg/Nowa",52.4627828000,16.6558864200,C
2051,"TPPIA01","Tarnowo Pdg/Piaskowa",52.4585138600,16.6454551200,C
2052,"TPPIA02","Tarnowo Pdg/Piaskowa",52.4590882000,16.6466023900,C
2053,"TPOST01","Tarnowo Pdg/Ostatnia",52.4633371900,16.6441703000,C
2054,"TPOST02","Tarnowo Pdg/Ostatnia",52.4634689500,16.6418115100,C
2055,"RUNOW01","Rumianek/Nowa I",52.4626118100,16.6362388200,C
2056,"RUNOW02","Rumianek/Nowa I",52.4626113900,16.6364433700,C
2057,"RUSZK02","Rumianek/Szkolna",52.4621237800,16.6240799700,C
2058,"RUSZK01","Rumianek/Szkolna",52.4614306700,16.6237900800,C
2059,"RUKLU02","Rumianek/Świetlica",52.4592018400,16.6202433400,C
2060,"RUKLU01","Rumianek/Świetlica",52.4594056800,16.6202422600,C
2061,"JNPET01","Jankowice/Pętla",52.4393913900,16.6206655700,C
2062,"LUOSK02","Luboń/Ośrodek Kultury",52.3277149766,16.8778135431,B
2063,"LUOSK01","Luboń/Ośrodek Kultury",52.3283376170,16.8774888767,B
2064,"MT02","Most Teatralny",52.4100495400,16.9129050600,A
2069,"JNPRZ02","Jankowice/Przemysłowa",52.4544493200,16.6403263800,C
2070,"JNPRZ01","Jankowice/Przemysłowa",52.4550848200,16.6408302800,C
2071,"LKADM01","Lusówko/Admiralska",52.4423930900,16.6340187400,C
2072,"LKADM02","Lusówko/Admiralska",52.4424291400,16.6338952500,C
2073,"LKSZA02","Lusówko/Szantowa",52.4394964500,16.6444631900,C
2074,"LKSZA01","Lusówko/Szantowa",52.4395156300,16.6443722900,C
2075,"LKBOS01","Lusówko/Bosmańska",52.4346932400,16.6447847100,C
2076,"LKBOS02","Lusówko/Bosmańska",52.4346758500,16.6448749500,C
2077,"LKDOP01","Lusówko/Dopiewska",52.4280784300,16.6457201500,C
2078,"LKDOP02","Lusówko/Dopiewska",52.4283745700,16.6455222800,C
2079,"LKPET01","Lusówko/Pętla",52.4275842900,16.6541604700,C
2080,"LKGRA02","Lusówko/Grabowa",52.4331928100,16.6396758300,C
2081,"LKGRA01","Lusówko/Grabowa",52.4334361600,16.6394221600,C
2082,"JNPAL02","Jankowice/Pałac",52.4407939900,16.6173347100,C
2083,"JNPAL01","Jankowice/Pałac",52.4408779500,16.6172356000,C
2084,"CKJAN01","Ceradz Kościelny/Jankowicka",52.4407338900,16.6024359800,C
2085,"CKJAN02","Ceradz Kościelny/Jankowicka",52.4407926300,16.6029800700,C
2086,"CKKOL02","Ceradz Kościelny/Kościół",52.4373567100,16.5925915600,C
2087,"CKKOL01","Ceradz Kościelny/Kościół",52.4375433700,16.5924837000,C
2088,"CDOKR02","Ceradz Dolny/Okrężna",52.4254497100,16.5769179700,C
2089,"CDOKR01","Ceradz Dolny/Okrężna",52.4259392600,16.5774834100,C
2090,"CDPAR02","Ceradz Dolny/Parkowa",52.4208287700,16.5712571500,C
2091,"CDPAR01","Ceradz Dolny/Parkowa",52.4211889100,16.5714042800,C
2092,"CDBRZ02","Ceradz Dolny/Brzoza Huby",52.4246251400,16.5448342400,C
2093,"CDBRZ01","Ceradz Dolny/Brzoza Huby",52.4250398200,16.5444662500,C
2094,"GBWIE01","Grzebienisko/Wierzbowa",52.4329071300,16.5316423700,C
2095,"GBWIE02","Grzebienisko/Wierzbowa",52.4330965400,16.5304299400,C
2096,"GBPET01","Grzebienisko/Pętla",52.4334174800,16.5257196800,C
2097,"TPZIE01","Tarnowo Pdg/Zielona",52.4676001100,16.6577562800,C
2098,"TPZIE02","Tarnowo Pdg/Zielona",52.4676634200,16.6570464800,C
2099,"TPOKR01","Tarnowo Pdg/Okrężna",52.4693106700,16.6515268200,C
2100,"TPOKR02","Tarnowo Pdg/Okrężna",52.4700622700,16.6502600700,C
2101,"GRCIE01","Góra/Ciepła",52.4752718300,16.6427622100,C
2102,"GRCIE02","Góra/Ciepła",52.4755622700,16.6422255900,C
2103,"GRDLII01","Góra/Długa II",52.4864682700,16.6479383900,C
2104,"GRDLII02","Góra/Długa II",52.4865941200,16.6479876800,C
2105,"KHKRE02","Kokoszczyn/Kręta",52.4916755100,16.6530352500,C
2106,"KHKRE01","Kokoszczyn/Kręta",52.4916065700,16.6530657800,C
2107,"KHPET01","Kokoszczyn/Pętla",52.4977356600,16.6537804700,C
2108,"GRKRE01","Góra/Kręta",52.4793762900,16.6358483600,C
2109,"GRKRE02","Góra/Kręta",52.4793463200,16.6361721100,C
2110,"GRSZK01","Góra/Szkolna",52.4816233900,16.6333034400,C
2111,"GRSZK02","Góra/Szkolna",52.4820531500,16.6331125800,C
2112,"GRPET02","Góra/Pętla",52.4854372400,16.6294331500,C
2113,"GRPET01","Góra/Pętla",52.4855115500,16.6295712900,C
2114,"BZZNO01","Brzezno/",52.4912558700,16.6223832000,C
2115,"BZZNO02","Brzezno/",52.4913176100,16.6220973800,C
2116,"KMSTO02","Kaźmierz/Storczykowa",52.5096283700,16.5890612400,C
2117,"KMSTO01","Kaźmierz/Storczykowa",52.5100143100,16.5881489700,C
2118,"NKRZ01","Nad Krzesinką",52.3361875492,17.0085507972,A
2119,"NKRZ02","Nad Krzesinką",52.3358593100,17.0097223700,A
2120,"PRNA01","Przyjemna",52.3505483600,17.0408873000,A
2121,"PRNA02","Przyjemna",52.3505610900,17.0412050800,A
2122,"TUOSP02","Tulce/Przylesie",52.3459140900,17.0628576400,B
2123,"TUOSP01","Tulce/Przylesie",52.3461490600,17.0621922600,B
2124,"KMRYN01","Kaźmierz/Rynek",52.5132944400,16.5831383400,C
2125,"JRSKL02","Jaryszki/Składowa",52.3299190000,17.0162140000,B
2126,"JRSKL01","Jaryszki/Składowa",52.3299460000,17.0161340000,B
2127,"KXDRU01","Koninko/Drukarska",52.3194150000,17.0243310000,B
2128,"KXDRU02","Koninko/Drukarska",52.3197820000,17.0239600000,B
2129,"KXWEZ01","Koninko/Węzeł",52.3218761680,17.0296393553,B
2131,"SCSAR02","Szczytniki/Sarnia",52.2995050000,17.0112800000,B
2132,"SCSAR01","Szczytniki/Sarnia",52.2994680000,17.0113330000,B
2133,"SCNWO02","Szczytniki/Nad Wodą",52.3018330000,17.0164020000,B
2134,"SCNWO01","Szczytniki/Nad Wodą",52.3017780000,17.0161590000,B
2135,"SCPET01","Szczytniki/Pętla",52.3045090000,17.0103620000,B
2136,"KXGRA01","Koninko/Granatowa",52.3066750000,17.0204650000,B
2137,"KXGRA02","Koninko/Granatowa",52.3069560000,17.0198840000,B
2138,"KXLAS02","Koninko/Las",52.2997180000,17.0308230000,B
2139,"KXLAS01","Koninko/Las",52.2999380000,17.0303780000,B
2140,"BRLAS01","Borówiec/Las",52.2926950000,17.0452120000,B
2141,"BRLAS02","Borówiec/Las",52.2927870000,17.0448840000,B
2142,"BRDEB01","Borówiec/Dębowa",52.2903510000,17.0450950000,B
2143,"BRDEB02","Borówiec/Dębowa",52.2906560000,17.0449730000,B
2144,"BRREK01","Borówiec/Rekreacyjna",52.2868180000,17.0463060000,B
2145,"BRREK02","Borówiec/Rekreacyjna",52.2872070000,17.0463160000,B
2146,"BRLAK01","Borówiec/Łąkowa",52.2829330000,17.0451850000,B
2147,"BRLAK02","Borówiec/Łąkowa",52.2829140000,17.0452720000,B
2148,"KAKLO01","Kamionki/Klonowa",52.2917674580,16.9812640625,B
2149,"KXDZI02","Koninko/Dziennikarska",52.3090730000,17.0162780000,B
2150,"KXDZI01","Koninko/Dziennikarska",52.3091129364,17.0163132755,B
2151,"KXPIS02","Koninko/Pisarska",52.3064370000,17.0135620000,B
2152,"KXPIS01","Koninko/Pisarska",52.3068920832,17.0139077927,B
2153,"TUSZK02","Tulce/Szkoła",52.3449015000,17.0673303800,B
2154,"KAPOL01","Kamionki/Polna",52.2868362500,16.9866283700,B
2155,"KAPOL02","Kamionki/Polna",52.2860552600,16.9886908500,B
2156,"TULES02","Tulce/Leśna",52.3440963600,17.0730848500,B
2157,"TULES01","Tulce/Leśna",52.3443426400,17.0723302400,B
2159,"DAPET02","Daszewice/Pętla",52.2958732400,16.9623613000,B
2160,"BBBBK01","Babki/Babicka",52.3134098808,16.9378177959,B
2161,"BBBBK02","Babki/Babicka",52.3136355491,16.9382457652,B
2163,"TUKRO02","Tulce/Krótka",52.3426690000,17.0762610000,B
2164,"CZGRO02","Czapury/Gromadzka",52.3196376800,16.9218183200,B
2165,"CZWAR02","Czapury/Warta",52.3102736200,16.9104145500,B
2166,"WRPOD01","Wiórek/Podleśna",52.3072488100,16.9095126200,B
2167,"TUKOS01","Tulce/Kościół",52.3420328900,17.0805671900,B
2168,"TUKOS02","Tulce/Kościół",52.3420812100,17.0813603600,B
2169,"CZSTA02","Czapury/Stacja Energetyczna",52.3312441200,16.9111392100,B
2170,"CZSTA01","Czapury/Stacja Energetyczna",52.3309863000,16.9109873900,B
2171,"PRPLN02","Promnice/Północna",52.5413730300,16.9657950700,C
2172,"PRPLN01","Promnice/Północna",52.5413062000,16.9655419200,C
2173,"PRPLN04","Promnice/Północna",52.5419438000,16.9661314700,C
2174,"TUZDB01","Tulce/Zadęby",52.3451816900,17.0915260500,B
2175,"TUZDB02","Tulce/Zadęby",52.3452274300,17.0917709200,B
2176,"BOSZK01","Bolechowo-Os./Szkoła",52.5409308600,16.9732407100,C
2177,"BOSZK02","Bolechowo-Os./Szkoła",52.5412643600,16.9746370000,C
2178,"TUKRA01","Tulce/Krańcowa",52.3485934900,17.0994081500,B
2179,"TUKRA02","Tulce/Krańcowa",52.3490441300,17.1013903300,B
2180,"BOWOJ02","Bolechowo-Os./Wojska Polskiego",52.5414489600,16.9725434600,C
2181,"BOWOJ01","Bolechowo-Os./Wojska Polskiego",52.5417104200,16.9724615900,C
2182,"BOFAU02","Bolechowo-Os./Fabryka Autobusów",52.5460981400,16.9729352500,C
2183,"BOFAU01","Bolechowo-Os./Fabryka Autobusów",52.5462731500,16.9728438900,C
2184,"BOKAS01","Bolechowo-Os./Kasztanowa",52.5503955500,16.9733586200,C
2185,"BOKAS02","Bolechowo-Os./Kasztanowa",52.5504969100,16.9734919000,C
2186,"ZSNZ01","Żerniki/Skrzyżowanie",52.3265599102,17.0429654350,B
2187,"ZSNZ02","Żerniki/Skrzyżowanie",52.3268396556,17.0426260111,B
2188,"BOPOL01","Bolechowo/Poligonowa",52.5428265900,16.9866620000,C
2189,"BOPOL04","Bolechowo/Poligonowa",52.5431887900,16.9853288400,C
2191,"BOOGR01","Bolechowo-Os./Ogrodowa",52.5332147700,16.9771902900,C
2192,"BOOGR02","Bolechowo-Os./Ogrodowa",52.5336508600,16.9770254100,C
2193,"BOPRZ02","Bolechowo/Przejazd",52.5330406000,16.9796078500,C
2194,"BOPRZ01","Bolechowo/Przejazd",52.5339703100,16.9800908000,C
2195,"OWKSP01","Owińska/Ks. Piotrowskiego",52.5170894900,16.9744112600,C
2196,"OWKSP02","Owińska/Ks. Piotrowskiego",52.5172277800,16.9745642100,C
2197,"OWKSP04","Owińska/Ks. Piotrowskiego",52.5167176300,16.9755695100,C
2198,"OWKSP03","Owińska/Ks. Piotrowskiego",52.5165575700,16.9751442200,C
2199,"OWLIP01","Owińska/Lipowa",52.5168477500,16.9854892500,C
2200,"OWLIP02","Owińska/Lipowa",52.5174170200,16.9852050500,C
2201,"OWSTA02","Owińska/Stacja",52.5120028900,16.9868849400,C
2202,"OWSTA01","Owińska/Stacja",52.5119126300,16.9871035600,C
2203,"OWPAR02","Owińska/Parkowa",52.5109763300,16.9777942100,C
2204,"OWPAR01","Owińska/Parkowa",52.5112683800,16.9771534100,C
2205,"OWPAL02","Owińska/Pałac",52.5130679600,16.9753961500,C
2206,"OWPAL01","Owińska/Pałac",52.5136024200,16.9745204500,C
2207,"OWOGR02","Owińska/Gospodarstwo Ogrodnicze",52.5030195600,16.9760676800,C
2208,"OWOGR01","Owińska/Gospodarstwo Ogrodnicze",52.5034255600,16.9758111100,C
2209,"MWKOL02","Miękowo/Kolejowa",52.4978361500,16.9766955800,C
2210,"MWKOL01","Miękowo/Kolejowa",52.4988289900,16.9763707800,C
2211,"CEELE01","Czerwonak/Elewator",52.4859394900,16.9779277700,B
2212,"CEELE02","Czerwonak/Elewator",52.4864096400,16.9780642500,B
2213,"CEPRZ01","Czerwonak/Os. Przylesie",52.4805430700,16.9785901400,B
2214,"CEPRZ02","Czerwonak/Os. Przylesie",52.4808199700,16.9787556700,B
2215,"CEKRE01","Czerwonak/Kręta",52.4742795500,16.9793813300,B
2216,"CEKRE02","Czerwonak/Kręta",52.4753075700,16.9794763200,B
2217,"CESTA02","Czerwonak/Stacja",52.4681460800,16.9803936900,B
2218,"CESTA01","Czerwonak/Stacja",52.4689475100,16.9800592000,B
2219,"CESZK01","Czerwonak/Szkolna",52.4632149700,16.9822085100,B
2220,"CESZK02","Czerwonak/Szkolna",52.4643364200,16.9817766500,B
2221,"KZLIP01","Koziegłowy/Lipowa",52.4540658000,16.9844318900,B
2222,"KZLIP02","Koziegłowy/Lipowa",52.4555496900,16.9844963200,B
2223,"KZCOS01","Koziegłowy/Piaskowa COŚ",52.4464440500,16.9837328800,B
2224,"KZCOS02","Koziegłowy/Piaskowa COŚ",52.4484847500,16.9842291500,B
2225,"KZCOS04","Koziegłowy/Piaskowa COŚ",52.4474522940,16.9845992718,B
2226,"KZSZK01","Koziegłowy/Piaskowa Szkoła",52.4465793440,16.9895135404,B
2227,"SWORZ02","Szewce/Orzechowa",52.3588011600,17.0960952400,B
2228,"GWJES02","Gowarzewo/Jesionowa",52.3531200800,17.1118252100,B
2229,"GWJES01","Gowarzewo/Jesionowa",52.3532834800,17.1118970900,B
2230,"GWJSN01","Gowarzewo/Jesienna",52.3550930000,17.1156019700,B
2231,"GWJSN02","Gowarzewo/Jesienna",52.3553068900,17.1162356400,B
2232,"GWKAS01","Gowarzewo/Al. Kasztanowa",52.3576135500,17.1236874800,B
2233,"GWKAS02","Gowarzewo/Al. Kasztanowa",52.3576374500,17.1241345900,B
2234,"GWCZE02","Gowarzewo/Czereśniowa",52.3594012200,17.1306838900,B
2235,"GWCZE01","Gowarzewo/Czereśniowa",52.3597796300,17.1316287700,B
2236,"GWAKA02","Gowarzewo/Akacjowa",52.3622413400,17.1301941700,B
2238,"GWOSP01","Gowarzewo/OSP",52.3643857400,17.1246453700,B
2240,"GWTOP02","Gowarzewo/Kaplica",52.3616530300,17.1230105000,B
2241,"GWTAN02","Tanibórz/Wschód",52.3513575600,17.1469431400,B
2242,"GWTAN01","Tanibórz/Wschód",52.3516694700,17.1465630000,B
2247,"KLUGM02","Kleszczewo/Urząd Gminy",52.3356910700,17.1673427700,B
2248,"KLUGM01","Kleszczewo/Urząd Gminy",52.3362711900,17.1665857800,B
2249,"KLPET01","Kleszczewo/Pętla",52.3333434700,17.1718193900,B
2250,"KLPOL01","Kleszczewo/Polna",52.3323756600,17.1913852400,B
2251,"KLPOL02","Kleszczewo/Polna",52.3324482300,17.1909185500,B
2252,"POOSI01","Poklatki/Osiedle",52.3300611123,17.2034834521,B
2253,"POPET01","Poklatki/Pętla",52.3281804500,17.2025601000,B
2254,"KLSZK01","Kleszczewo/Szkoła",52.3360707600,17.1658086900,B
2255,"KLSTR01","Kleszczewo/Baza ZK",52.3333652900,17.1637281200,B
2256,"KLSTR02","Kleszczewo/Baza ZK",52.3337428200,17.1638608200,B
2257,"BLSTB01","Bylin/Stacja benzynowa",52.3276985700,17.1606968700,B
2258,"BLSTB02","Bylin/Stacja benzynowa",52.3276985100,17.1605748200,B
2259,"BLWIE01","Bylin/Wieś",52.3313253500,17.1334375400,B
2260,"NGPAR02","Nagradowice/Park",52.3201232600,17.1497962000,B
2261,"NGOZD02","Nagradowice/Ośrodek Zdrowia",52.3206873800,17.1474324600,B
2262,"NGOZD01","Nagradowice/Ośrodek Zdrowia",52.3208087900,17.1473302500,B
2263,"KXBYL01","Komorniki gm.Kleszczewo/Bylin",52.3263061100,17.1250476100,B
2264,"KXBYL02","Komorniki gm.Kleszczewo/Bylin",52.3263893400,17.1247081400,B
2266,"KXOSP02","Komorniki gm.Kleszczewo/OSP",52.3305061600,17.1114584500,B
2267,"KXOSP01","Komorniki gm.Kleszczewo/OSP",52.3306343600,17.1111042300,B
2268,"KXRSP01","Komorniki gm.Kleszczewo/RSP",52.3326259500,17.1111493900,B
2269,"KXRSP02","Komorniki gm.Kleszczewo/RSP",52.3334087300,17.1111046500,B
2270,"SHCIN02","Szlachęcin/",52.5599308500,16.9803190500,C
2271,"SHCIN01","Szlachęcin/",52.5601540700,16.9808261900,C
2272,"KCPET02","Kicin/Pętla",52.4654992100,17.0213179200,B
2273,"KCROL02","Kicin/Rolna",52.4696196800,17.0257032400,B
2274,"KCROL01","Kicin/Rolna",52.4698016800,17.0257464600,B
2275,"KYTRA01","Kliny/Trakt",52.4755891600,17.0330154500,C
2276,"KYTRA02","Kliny/Trakt",52.4762967800,17.0353960600,C
2277,"KYORL01","Kliny/Orla",52.4781827200,17.0414852700,C
2278,"KYORL02","Kliny/Orla",52.4783680900,17.0421019700,C
2279,"KYCME01","Kliny/Cmentarz Ewangelicki",52.4855072300,17.0566298700,C
2280,"KYCME02","Kliny/Cmentarz Ewangelicki",52.4863213700,17.0574692900,C
2281,"KYBRZ01","Kliny/Brzozowa",52.4895432400,17.0596249800,C
2282,"KYBRZ02","Kliny/Brzozowa",52.4898439700,17.0600334800,C
2283,"MELAK02","Mielno/Łąkowa",52.4916912000,17.0673597200,C
2284,"MELAK01","Mielno/Łąkowa",52.4921246300,17.0669669800,C
2285,"MELIS01","Mielno/Lisia",52.4894810800,17.0719919400,C
2286,"MELIS02","Mielno/Lisia",52.4894689300,17.0718976700,C
2287,"WEJWO01","Wierzonka/Jednostka Wojskowa",52.4849103700,17.0815207600,C
2288,"WEJWO02","Wierzonka/Jednostka Wojskowa",52.4852556000,17.0806318700,C
2289,"WEPET01","Wierzonka/Pętla",52.4780400000,17.0951310000,C
2291,"WESZK02","Wierzonka/Szkoła",52.4874200000,17.0920900000,C
2292,"WESZK01","Wierzonka/Szkoła",52.4876560000,17.0918870000,C
2293,"DEKAS01","Dębogóra/Kasztanowa",52.4909536400,17.0956738100,C
2294,"DEKAS02","Dębogóra/Kasztanowa",52.4913690400,17.0965076600,C
2295,"KFDWR01","Karłowice/Dwór",52.4940860000,17.1003210000,C
2296,"KFDWR02","Karłowice/Dwór",52.4948070000,17.1013400000,C
2297,"KFPET01","Karłowice/Pętla",52.4974480200,17.1066468200,C
2298,"KFPET02","Karłowice/Pętla",52.4973890300,17.1066667200,C
2299,"TCPET01","Tuczno/Pętla",52.5155781700,17.1367033100,C
2303,"CEZUR02","Czerwonak/Żurawia",52.4674431700,16.9874688400,B
2304,"CEGAJ01","Czerwonak/Gajowa",52.4709332500,16.9958905100,B
2305,"CEGAJ02","Czerwonak/Gajowa",52.4709255400,16.9953006700,B
2306,"CEZDR02","Czerwonak/Zdroje",52.4705100000,17.0002495100,B
2307,"KXZDB02","Komorniki gm.Kleszczewo/Zadęby",52.3419896800,17.1120038000,B
2308,"KXZDB01","Komorniki gm.Kleszczewo/Zadęby",52.3418204500,17.1119935500,B
2309,"KXTAN01","Tanibórz/Zachód",52.3453565400,17.1136235800,B
2310,"KXTAN02","Tanibórz/Zachód",52.3459495300,17.1134171200,B
2311,"LPLIP01","Lipowiec/",52.3182178400,17.1838974100,B
2312,"LPLIP02","Lipowiec/",52.3186634400,17.1834257500,B
2313,"BUBUG02","Bugaj/",52.3102168400,17.1816930800,B
2314,"BUBUG01","Bugaj/",52.3104351000,17.1818931800,B
2315,"KEPAL02","Krerowo/Pałac",52.2954916400,17.1947686100,B
2316,"KEPAL01","Krerowo/Pałac",52.2959357000,17.1947378400,B
2317,"KEKOS01","Krerowo/Kościół",52.2893378900,17.1930879600,B
2318,"KEKOS02","Krerowo/Kościół",52.2899883100,17.1934393400,B
2319,"KECME01","Krerowo/Cmentarz",52.2900075900,17.1844939200,B
2320,"KECME02","Krerowo/Cmentarz",52.2899014900,17.1849432000,B
2321,"ZNNWS01","Zimin/Nowy Świat",52.2920498000,17.1722841500,B
2322,"ZNNWS02","Zimin/Nowy Świat",52.2921395800,17.1716425200,B
2323,"ZNOSP02","Zimin/Świetlica OSP",52.2942037600,17.1590554600,B
2324,"ZNOSP01","Zimin/Świetlica OSP",52.2945833900,17.1582719500,B
2325,"ZNSZK02","Zimin/Szkoła",52.2953961100,17.1517947500,B
2326,"SRSKR02","Śródka/Skrzyżowanie",52.2998666500,17.1229715900,B
2327,"SRSKR01","Śródka/Skrzyżowanie",52.2998081600,17.1230832800,B
2328,"SRJED02","Śródka/I",52.2980830200,17.1284983900,B
2329,"SRJED01","Śródka/I",52.2983486300,17.1266879500,B
2330,"SRDWA02","Śródka/II",52.2976939200,17.1316682700,B
2331,"SRDWA01","Śródka/II",52.2976996200,17.1319911100,B
2332,"SRTRZ01","Śródka/III",52.2968016700,17.1392281200,B
2333,"SRTRZ02","Śródka/III",52.2968637400,17.1383730100,B
2334,"ZNNSW01","Zimin/Nowy Świat Centrum",52.2989001200,17.1753768100,B
2335,"KVPET02","Krzyżowniki/Pętla",52.3035846700,17.1285840500,B
2336,"KVSKR02","Krzyżowniki/Boisko",52.3068118800,17.1316634900,B
2337,"KVSKR01","Krzyżowniki/Boisko",52.3065438100,17.1315586200,B
2338,"MAJED02","Markowice/I",52.3009852400,17.2180668600,B
2339,"MAJED01","Markowice/I",52.3010446100,17.2181288500,B
2340,"MAPET01","Markowice/Pętla",52.3124303300,17.2273192200,B
2341,"MAAUT01","Markowice/Autostrada",52.3120691700,17.2321514000,B
2366,"MACEN02","Markowice/Centrum",52.3032131300,17.2239257500,B
2370,"TPGIM02","Tarnowo Pdg/Gimnazjum",52.4613648400,16.6511556000,C
2371,"SIDWA02","Sierosław/Okrężna ",52.4053490000,16.6659340000,C
2372,"SIDWA01","Sierosław/Okrężna ",52.4059266000,16.6656952000,C
2373,"SIJED02","Sierosław/Zakręt",52.4127750000,16.6627140000,C
2374,"SIJED01","Sierosław/Zakręt",52.4130170000,16.6627030000,C
2375,"PRISK01","Promnice/Klub Iskra",52.5485452200,16.9625585300,C
2376,"PRISK02","Promnice/Klub Iskra",52.5482291400,16.9627455600,C
2377,"OGDY03","Ogrody",52.4160602257,16.8801747532,A
2378,"PRKLO01","Promnice/Klonowa",52.5523326400,16.9622567400,C
2379,"PRKLO02","Promnice/Klonowa",52.5521857400,16.9619850700,C
2381,"TZWIE02","Trzaskowo/Wieś",52.5339625800,17.0202455900,C
2382,"BWKRE01","Bolechówko/Kręta",52.5180795000,16.9872088100,C
2383,"BWKRE02","Bolechówko/Kręta",52.5180531200,16.9873820900,C
2384,"BWJOD01","Bolechówko/Jodłowa",52.5189715800,16.9948169500,C
2385,"BWJOD02","Bolechówko/Jodłowa",52.5189228700,16.9948277800,C
2386,"PTKOG01","Potasze/Klub Kogucik",52.5201849800,17.0047475200,C
2387,"PTKOG02","Potasze/Klub Kogucik",52.5201399900,17.0046766400,C
2388,"PTCED01","Potasze/Cedrowa",52.5221028900,17.0163732400,C
2389,"PTCED02","Potasze/Cedrowa",52.5221500000,17.0168403000,C
2390,"PTWIE01","Potasze/Wierzbowa",52.5236765300,17.0251506100,C
2391,"CEUGM03","Czerwonak/Urząd Gminy",52.4716828700,16.9888792100,B
2392,"CEUGM04","Czerwonak/Urząd Gminy",52.4716139000,16.9890116300,B
2399,"DELES02","Dębogóra/Leśna",52.4974469900,17.0919767300,C
2413,"JADZ02","Jaryszki/Działki",52.3337244446,17.0190434248,B
2414,"JADZ01","Jaryszki/Działki",52.3340673026,17.0187335159,B
2415,"PJNZ02","Podjaryszki",52.3377552600,17.0152323100,A
2416,"KINZ02","Krzesinki",52.3402860700,17.0127481600,A
2425,"BOPAL01","Bolechowo/Pałac",52.5442364500,16.9905190200,C
2426,"BOPAL02","Bolechowo/Pałac",52.5442235600,16.9906102700,C
2466,"TPSZK01","Tarnowo Pdg/Szkolna",52.4670886600,16.6629592600,C
2498,"SOSN02","Sośnicka",52.4059490000,17.0422430000,A
2537,"LKSZK01","Lusówko/Szkoła",52.4263976801,16.6480825538,C
2538,"TPGRU01","Tarnowo Pdg/27 Grudnia",52.4723900100,16.6468882600,C
2551,"ZAOZA02","Zalasewo/Os. Zamoyskiego",52.3883140000,17.0687620000,B
2552,"ZAOZA01","Zalasewo/Os. Zamoyskiego",52.3887230000,17.0686280000,B
2553,"ZAHSZ02","Zalasewo/Heweliusza Szkoła",52.3848580000,17.0687360000,B
2554,"ZAHSZ01","Zalasewo/Heweliusza Szkoła",52.3850790000,17.0685930000,B
2555,"ZATRA02","Zalasewo/Transportowa",52.3821030000,17.0672440000,B
2556,"ZATRA01","Zalasewo/Transportowa",52.3823110000,17.0672580000,B
2567,"TUKOS03","Tulce/Kościół",52.3421700000,17.0804270000,B
2570,"PLL21","Port Lotniczy Ławica",52.4142302500,16.8284017000,A
2572,"MGLES01","M. Goślina/Leśna",52.5646904900,16.9895134800,C
2573,"MGLES02","M. Goślina/Leśna",52.5654680500,16.9909090100,C
2574,"MGKRT02","M. Goślina/Kręta",52.5667142700,16.9992865200,C
2575,"MGNRY01","M. Goślina/Nowy Rynek",52.5673982400,16.9954782300,C
2576,"MGMOD01","M. Goślina/Modrzewiowa",52.5664568900,17.0025375100,C
2579,"MGCME01","M. Goślina/Cmentarz",52.5710909200,17.0079356000,C
2580,"MGCME02","M. Goślina/Cmentarz",52.5712143600,17.0078878300,C
2585,"MGSTA01","M. Goślina/Dworzec",52.5748879049,17.0149998524,C
2586,"MGSTA02","M. Goślina/Dworzec",52.5752558102,17.0153245188,C
2587,"MGOKR01","M. Goślina/Okrężna",52.5833105100,17.0165526600,C
2588,"MGOKR02","M. Goślina/Okrężna",52.5843184400,17.0176234700,C
2589,"PDPAR02","Przebędowo/Park",52.5861815200,17.0140179600,C
2590,"PDPAR01","Przebędowo/Park",52.5859934800,17.0148795000,C
2747,"JNPOZ02","Jankowice/Poznańska",52.4432831400,16.6333000500,C
2748,"JNPOZ01","Jankowice/Poznańska",52.4435338100,16.6335564600,C
2749,"BUDZ43","Budziszyńska",52.3884800000,16.8481800000,A
2750,"BUDZ44","Budziszyńska",52.3882600000,16.8477980000,A
2751,"KKNZ02","Koszalińska",52.4689674800,16.8212195500,A
2752,"KKNZ01","Koszalińska",52.4690057600,16.8213839100,A
2754,"RRAT06","Rondo Rataje",52.3962661800,16.9492635400,A
2788,"GLSTW01","Głuchowo/Stawna",52.3460476160,16.7705408148,C
2800,"PUNAD01","Puszczykowo/Nadwarciańska",52.2656695500,16.8728698200,C
2801,"PUNAD02","Puszczykowo/Nadwarciańska",52.2660436900,16.8726870200,C
2802,"PTJOD01","Potasze/Jodłowa",52.5244519700,17.0299407900,C
2803,"PTWIE02","Potasze/Wierzbowa",52.5236871600,17.0254049900,C
2819,"KJCH01","Konopackiej Centrum Handlowe ",52.3558408900,16.8408888000,A
2825,"TERM03","Termalna",52.4086748457,16.9724242820,A
2826,"TERM04","Termalna",52.4086928603,16.9727637060,A
2847,"LUPPR01","Luboń/Park Przemysłowy",52.3302686491,16.8933089847,B
2848,"LUPOL02","Luboń/Polna",52.3216956670,16.8731206379,B
2849,"LUPOL01","Luboń/Polna",52.3217137172,16.8736666678,B
2850,"LUKWI02","Luboń/Kwiatowa",52.3219934932,16.8789941482,B
2851,"LUKWI01","Luboń/Kwiatowa",52.3220025182,16.8793630873,B
2852,"LUPOP02","Luboń/Poprzeczna",52.3396067967,16.8629821919,B
2853,"LUPOP01","Luboń/Poprzeczna",52.3399135236,16.8629379192,B
2858,"SWRZ01","Świerzawska",52.4053330052,16.8620524654,A
2859,"SWRZ02","Świerzawska",52.4052429252,16.8624509196,A
2860,"GALC02","Gałczyńskiego",52.4065310526,16.8507924445,A
2861,"GALC01","Gałczyńskiego",52.4063869284,16.8515303227,A
2862,"BRZE03","Brzechwy",52.4074138036,16.8458929335,A
2863,"JAWO01","Jawornicka",52.3881153633,16.8575366510,A
2864,"JAWO02","Jawornicka",52.3882685587,16.8573743178,A
2865,"SMGO03","Smoluchowskiego",52.3896923499,16.8544080476,A
2866,"PLPLD02","Plewiska/Południowa",52.3741747100,16.8203774300,B
2867,"PLPLD01","Plewiska/Południowa",52.3738839200,16.8201127600,B
2870,"TRZE04","Trzebińska",52.3675406400,16.8408455400,A
2871,"TRZE03","Trzebińska",52.3675185700,16.8402906500,A
2895,"POOSI02","Poklatki/Osiedle",52.3294866800,17.2034851800,B
2896,"GOSP04","Gospodarska",52.3550938489,17.0291818708,A
2898,"KLTOP01","Kleszczewo/Topolowa",52.3330312600,17.1786983000,B
2899,"KLTOP02","Kleszczewo/Topolowa",52.3331661100,17.1771401900,B
2901,"TUKRA03","Tulce/Krańcowa",52.3495336800,17.1001830600,B
2902,"KVWIA02","Krzyżowniki/Wiadukt",52.3109020000,17.1405273400,B
2903,"KVWIA01","Krzyżowniki/Wiadukt",52.3109321500,17.1407804500,B
2912,"RZEG92","Rondo Żegrze",52.3767413692,16.9565008711,A
2921,"SKSZA01","Skórzewo/Szarotkowa",52.3933996000,16.7950822200,B
2922,"SKSZA02","Skórzewo/Szarotkowa",52.3938595300,16.7962744300,B
2925,"DEDAB01","Dębogóra/Dąbrówki",52.4986421100,17.0824978500,C
2926,"DEKAS04","Dębogóra/Kasztanowa",52.4914314000,17.0959654100,C
2927,"CEZDR01","Czerwonak/Zdroje",52.4705421100,17.0008158400,B
2928,"PRPLN06","Promnice/Północna",52.5427118000,16.9655759500,C
2929,"PRPLN05","Promnice/Północna",52.5417574700,16.9659340400,C
2931,"TZWIE01","Trzaskowo/Wieś",52.5338528600,17.0201506100,C
2950,"BOZSZ01","Bolechowo-Os./Zespół Szkół",52.5503881700,16.9762534700,C
2951,"PIAR02","Piaśnicka/Rynek",52.3870790272,16.9834481819,A
2952,"PIAR01","Piaśnicka/Rynek",52.3871961794,16.9829611823,A
2953,"PK03","Piaśnicka/Kurlandzka",52.3850873912,16.9869899971,A
2954,"PIAS04","Piaśnicka",52.3882505358,16.9797735486,A
2955,"PIAS03","Piaśnicka",52.3883856000,16.9797388000,A
2956,"KICZE01","Kiekrz/Czereśniowa",52.4985931340,16.7506476194,B
2957,"LUGO03","Os. Lubczykowa Góra",52.4897021710,16.9405774602,A
2970,"OSIA03","Ostatnia",52.3725136784,16.8668044008,A
2975,"KURP04","Kurpińskiego",52.4501790261,16.9201972652,A
2977,"PDPET01","Przebędowo/Pętla",52.5872258100,17.0097565300,C
2978,"GLMOR01","Głuchowo/Morelowa",52.3447306620,16.7630439726,C
2979,"GLMOR02","Głuchowo/Morelowa",52.3449110690,16.7636785478,C
2980,"KOKLB01","Komorniki/Kolumba",52.3477701100,16.7964773100,B
2981,"BRKUR01","Borówiec/Kurkowa",52.2812629632,17.0204601509,B
2982,"BRKUR02","Borówiec/Kurkowa",52.2811997299,17.0208586051,B
2983,"KOKSW03","Komorniki/Ks.Wawrzyniaka",52.3473430700,16.8053317900,B
2984,"KOKSW04","Komorniki/Ks.Wawrzyniaka",52.3474319100,16.8046777600,B
2985,"KOWIS01","Komorniki/Wiśniowa",52.3478051800,16.8116992600,B
2986,"KOWIS02","Komorniki/Wiśniowa",52.3476918200,16.8117238800,B
2987,"KOFAB02","Komorniki/Fabianowska",52.3493151800,16.8198971800,B
2988,"KOFAB01","Komorniki/Fabianowska",52.3493771700,16.8201462200,B
2989,"KOKOL01","Komorniki/Kolejowa",52.3523200000,16.8274218800,B
2990,"KOKOL02","Komorniki/Kolejowa",52.3522075400,16.8273563100,B
2991,"ZLPNL02","Złotniki/Park Nickel",52.4842624248,16.8448008738,B
2992,"ZLPNL01","Złotniki/Park Nickel",52.4857280755,16.8500988391,B
2998,"RKAP01","Rondo Kaponiera",52.4080713515,16.9116673935,A
3001,"LOZO01","Łozowa",52.3690789451,16.9079042149,A
3015,"RETM01","Retmańska",52.4783993335,16.7708064509,A
3016,"RETM02","Retmańska",52.4784083265,16.7699357547,A
3017,"KIWIA02","Kiekrz/Wiatraczna",52.4782284648,16.7650805164,B
3018,"KIWIA01","Kiekrz/Wiatraczna",52.4781924923,16.7646673046,B
3019,"RGKOS01","Rogierówko/Kościuszki",52.4750088152,16.7553110094,B
3078,"SCSZC02","Szczytniki/Szczelinka",52.2939981006,17.0046548005,B
3079,"SCSZC01","Szczytniki/Szczelinka",52.2936820244,17.0041530433,B
3080,"KANKA02","Kamionki/Nad Kople",52.2896360508,17.0003160768,B
3081,"KANKA01","Kamionki/Nad Kople",52.2892567218,17.0003013193,B
3082,"KOKLB02","Komorniki/Kolumba",52.3478587100,16.7939188200,B
3083,"KXTEL02","Koninko/Telewizyjna",52.3088511343,17.0209619080,B
3095,"LIDPS01","Lisówki/DPS",52.3323078718,16.6473299180,C
3099,"LUSRY02","Luboń/Strumykowa",52.3444420093,16.8979428596,B
3100,"LUSRY01","Luboń/Strumykowa",52.3444420093,16.8984003440,B
3101,"LURZE02","Luboń/Rzeczna",52.3466790183,16.9014699172,B
3102,"LURZE01","Luboń/Rzeczna",52.3469947162,16.9015437050,B
3103,"LUSZK04","Luboń/Szkoła nr 3",52.3481672883,16.8976329507,B
3104,"LUSZK03","Luboń/Szkoła nr 3",52.3482935634,16.8972492541,B
3107,"CESZK04","Czerwonak/Szkolna",52.4648087054,16.9819576680,B
3108,"CESZK03","Czerwonak/Szkolna",52.4649526388,16.9822233041,B
3109,"MGPOZ01","M. Goślina/Poznańska",52.5737213557,17.0112957040,C
3110,"MGPOZ02","M. Goślina/Poznańska",52.5731201221,17.0092886754,C
3111,"MGPOL02","M. Goślina/Polna",52.5782617495,17.0177152441,C
3112,"MGPOL01","M. Goślina/Polna",52.5785757910,17.0179513651,C
3118,"KASZK01","Kamionki/Szkoła",52.2787335640,16.9919337808,B
3123,"RAKO04","Rakoniewicka",52.3779401929,16.8827278117,A
3124,"ZKBUK04","Zakrzewo/Bukowska",52.4040466300,16.7171878100,C
3125,"SKKOS02","Skórzewo/Kościół",52.3909629095,16.7904044951,B
3128,"KNKOS01","Konarzewo/Kościelna",52.3350597711,16.7123517423,C
3129,"KNKOS02","Konarzewo/Kościelna",52.3349515029,16.7118499852,C
3130,"KNDOP02","Konarzewo/Dopiewska",52.3354928413,16.7090017755,C
3131,"KNDOP01","Konarzewo/Dopiewska",52.3357364414,16.7084409881,C
3132,"KNSEZ02","Konarzewo/Sezamkowa",52.3374416047,16.7044416884,C
3133,"KNSEZ01","Konarzewo/Sezamkowa",52.3376130196,16.7040137190,C
3134,"KNPER02","Konarzewo/Perłowa",52.3405540348,16.6991732382,C
3135,"KNPER01","Konarzewo/Perłowa",52.3406622893,16.6989813899,C
3136,"KNKSH02","Konarzewo/Ks. Hartlieba",52.3431159868,16.6952477264,C
3137,"KNKSH01","Konarzewo/Ks. Hartlieba",52.3433324830,16.6949378175,C
3138,"DOWYZ02","Dopiewo/Wyzwolenia",52.3466068585,16.6903187002,C
3139,"DOWYZ01","Dopiewo/Wyzwolenia",52.3468413775,16.6900383065,C
3145,"CESWW01","Czerwonak/Św. Wojciecha",52.4575844467,16.9933209918,B
3166,"OSRE01","Os. Reduta",52.4442393929,16.8928072275,A
3167,"OSRE02","Os. Reduta",52.4444103936,16.8922464401,A
3168,"CHEM93","Chemiczna",52.4264066800,16.9660342600,A
3173,"LKROZ01","Lusówko/Os. Rozalin",52.4137424800,16.6402299300,C
3174,"MALW03","Malwowa",52.3979458289,16.8029336665,A
3175,"RKKOL01","Rokietnica/Kolejowa",52.5134942748,16.7421177477,B
3176,"RKKOL02","Rokietnica/Kolejowa",52.5137009499,16.7418816267,B
3185,"OJAG03","Os. Jagiellońskie",52.3941706845,16.9588473237,A
3186,"BRKA02","Brneńska",52.3937471995,16.9630237141,A
3187,"BRKA01","Brneńska",52.3933507417,16.9638206226,A
3188,"WIAT02","Wiatraczna",52.3903952171,16.9667426201,A
3189,"WIAT04","Wiatraczna",52.3900167515,16.9666245596,A
3190,"WIAT03","Wiatraczna",52.3903771950,16.9676723466,A
3191,"OSTY02","Os. Tysiąclecia",52.3921703578,16.9718634946,A
3192,"OSTY01","Os. Tysiąclecia",52.3922694752,16.9714207677,A
3193,"SAAMA01","Sady/Amazon",52.4494544700,16.7085619100,C
3231,"SKGRA01","Skórzewo/Os. Grafitowe",52.3953300000,16.7628300000,B
3232,"SKGRA02","Skórzewo/Os. Grafitowe",52.3950000000,16.7637000000,B
3233,"KOLAK02","Komorniki/Łąkowa ",52.3322627573,16.8136328999,B
3234,"KOLAK01","Komorniki/Łąkowa ",52.3325514895,16.8128802642,B
3235,"KOWID02","Komorniki/Widokowa",52.3303769288,16.8183995929,B
3236,"KOWID01","Komorniki/Widokowa",52.3298355277,16.8197868038,B
3237,"KOTRU02","Komorniki/Truskawkowa",52.3273359738,16.8225612258,B
3238,"KOTRU01","Komorniki/Truskawkowa",52.3277149766,16.8228268619,B
3239,"KOWZG02","Komorniki/Os. Zielone Wzgórze ",52.3247640831,16.8204656518,B
3240,"KOWZG01","Komorniki/Os. Zielone Wzgórze ",52.3251340836,16.8207608030,B
3286,"KSMI01","Księcia Mieszka I",52.4300980437,16.9201529925,A
3321,"ARNI02","Arnikowa",52.4915901901,16.9420237014,A
3322,"ARNI01","Arnikowa",52.4920666774,16.9424369132,A
3323,"RKAP45","Rondo Kaponiera",52.4078000000,16.9130900000,A
3324,"RKAP46","Rondo Kaponiera",52.4077040000,16.9135160000,A
3329,"UAMF01","UAM Wydział Fizyki",52.4652405040,16.9289927730,A
3330,"UAMF92","UAM Wydział Fizyki",52.4651595421,16.9294207423,A
3331,"UAMB02","UAM Wydział Biologii",52.4660681062,16.9251262913,A
3332,"UAMB01","UAM Wydział Biologii",52.4661580620,16.9246835644,A
3333,"UAMH02","UAM Wydział Historyczny",52.4673454615,16.9199906593,A
3336,"RZEG93","Rondo Żegrze",52.3768134798,16.9545528727,A
3337,"JASI02","Jasielska",52.4451483887,16.8963638003,A
3338,"JASI01","Jasielska",52.4455623805,16.8969245877,A
3340,"GRDLI01","Góra/Długa I",52.4827227400,16.6443198100,C
3341,"GRDLI02","Góra/Długa I",52.4829605800,16.6444787000,C
3342,"CDPOW02","Ceradz Dolny/Powstańców Wielkopolskich",52.4299404600,16.5831017300,C
3343,"CDPOW01","Ceradz Dolny/Powstańców Wielkopolskich",52.4297049300,16.5826634500,C
3344,"LKKOS02","Lusówko/Kościół ",52.4259367100,16.6453625000,C
3345,"LKKOS03","Lusówko/Kościół ",52.4249390573,16.6447473444,C
3346,"LKSTO01","Lusówko/Storczyka",52.4184809000,16.6413561700,C
3347,"LKSTO02","Lusówko/Storczyka",52.4185930100,16.6412965600,C
3349,"WYBAT02","Wysogotowo/Batorowska",52.4129286600,16.7673969800,B
3350,"WYWIE01","Wysogotowo/Wierzbowa",52.4144321700,16.7763959900,B
3352,"RUNOA01","Rumianek/Nowa II",52.4623013300,16.6307977000,C
3379,"LUNIE01","Luboń/Niepodległości",52.3489700312,16.8913019560,B
3380,"LEDWO03","Łęczyca/Dworcowa",52.3162622437,16.8821227516,B
3386,"OGDY11","Ogrody",52.4166670000,16.8816690000,A
3387,"SIWIE02","Sierosław/Dworska ",52.4049186354,16.6755758944,C
3388,"LKKOS01","Lusówko/Kościół ",52.4258826300,16.6454118000,C
3389,"ZLOSI02","Złotniki/Osiedle",52.4887761130,16.8543785324,B
3393,"PLSTP03","Plewiska/Straż Pożarna",52.3655447676,16.8079955107,B
3394,"PLSTP04","Plewiska/Straż Pożarna",52.3652111699,16.8073904506,B
3559,"OKEI01","Okrzei",52.3609643413,16.8858416576,A
3560,"OKEI02","Okrzei",52.3612799371,16.8855760215,A
3563,"KCZA02","Kotowicza",52.3667168476,16.8842921134,A
3564,"KCZA01","Kotowicza",52.3670684655,16.8846167798,A
3565,"WROB01","Wróblewskiego",52.3637144573,16.8843363861,A
3566,"WROB02","Wróblewskiego",52.3640660992,16.8841740529,A
3567,"BOWE03","Bohaterów Westerplatte",52.3706836569,16.8866090509,A
3570,"DELES01","Dębogóra/Leśna",52.4973436532,17.0923294846,C
3573,"WYSKO02","Wysogotowo/Skórzewska ",52.4023791700,16.7961648100,B
3574,"WYSKO01","Wysogotowo/Skórzewska ",52.4022850200,16.7964778700,B
3579,"WYDLU03","Wysogotowo/Długa",52.4102870100,16.7793864100,B
3580,"WYSTO02","Wysogotowo/Stolarska",52.4071616000,16.7846613900,B
3581,"WYSTO01","Wysogotowo/Stolarska",52.4077117100,16.7840276900,B
3587,"KBKIE02","Kobylniki/Kierska",52.4725444550,16.7520348303,B
3588,"KBKIE01","Kobylniki/Kierska",52.4736777181,16.7543074951,B
3594,"UE01","Uniwersytet Ekonomiczny",52.4057383633,16.9172309949,A
3596,"LKPET02","Lusówko/Pętla",52.4275463000,16.6544373000,C
3597,"LKWIE02","Lusówko/Sierosławska",52.4264344000,16.6546290000,C
3599,"SZSTA01","Szreniawa/Stacja ",52.3164608191,16.7985359126,C
3620,"KLIM01","Klimontowska",52.3390023579,16.9212155370,A
3621,"KLIM02","Klimontowska",52.3393090891,16.9209056282,A
3622,"GSKA01","Głuchowska",52.3717924967,16.8739913342,A
3623,"GSKA02","Głuchowska",52.3718916599,16.8733567590,A
3625,"CZTU01","Czechosłowacka Tunel",52.3698001711,16.9029604311,A
3626,"CZTU02","Czechosłowacka Tunel",52.3698813083,16.9025177042,A
3629,"WISTA02","Wiry/Stacja ",52.3157387225,16.8671290672,B
3630,"WISTA01","Wiry/Stacja ",52.3160907461,16.8677931576,B
3631,"KOPOE01","Komorniki/Os. Poetów ",52.3232028274,16.8053391493,B
3632,"KOPOE02","Komorniki/Os. Poetów ",52.3235908903,16.8052506039,B
3633,"KOKOM02","Komorniki/Os. Kompozytorów ",52.3210729331,16.8053981795,B
3634,"GLTEC03","Głuchowo/Tęczowa",52.3451636375,16.7758387801,C
3635,"GLTEC04","Głuchowo/Tęczowa",52.3456326895,16.7758830528,C
3636,"KOJEZ04","Komorniki/Jeziorna",52.3289512252,16.8038191203,B
3637,"KOJEZ05","Komorniki/Jeziorna",52.3293302141,16.8037453324,B
3638,"KALI01","Kalinowa",52.3690518989,16.9036540366,A
3639,"KALI02","Kalinowa",52.3686642348,16.9037278244,A
3640,"LUWPL03","Luboń/Wojska Polskiego",52.3430708833,16.8759245750,B
3641,"LUWSC01","Luboń/Wschodnia ",52.3431159868,16.8820784789,B
3642,"LUWSC02","Luboń/Wschodnia ",52.3434226895,16.8826392663,B
3644,"LUPKP04","Luboń/PKP",52.3445502543,16.8916118649,B
3645,"LUPKP03","Luboń/PKP",52.3445773155,16.8917446829,B
3646,"LUJPA03","Luboń/Jana Pawła II",52.3455515078,16.8825064483,B
3647,"LUPRZ04","Luboń/Przemysłowa",52.3536689420,16.8930138334,B
3648,"LUPRZ03","Luboń/Przemysłowa",52.3539575344,16.8930876212,B
3650,"KJCH02","Konopackiej Centrum Handlowe ",52.3561038816,16.8412000283,A
3651,"KRZA02","Krzyżowa",52.3909448876,16.9248016249,A
3652,"KRZA01","Krzyżowa",52.3882235013,16.9237095653,A
3653,"ZEKA02","Żelazka",52.3911611495,16.9282696523,A
3654,"ZEKA01","Żelazka",52.3912332366,16.9276941074,A
3694,"CIII02","Os. Czecha III",52.3817978408,16.9778255502,A
3695,"OBNZ01","Os. Orła Białego III",52.3744067243,16.9640715011,A
3699,"RSTA97","Rondo Starołęka",52.3797879400,16.9451375500,A
3700,"RSTA96","Rondo Starołęka",52.3795265600,16.9450342400,A
3702,"RZEG94","Rondo Żegrze",52.3781204600,16.9573863200,A
3703,"RZEG95","Rondo Żegrze",52.3779131500,16.9579618700,A
3710,"CHEM91","Chemiczna",52.4274871100,16.9670377700,A
3711,"OSLE91","Os. Lecha",52.3886290165,16.9782387620,A
3713,"JRMAG01","Jaryszki/Składowa Magazyny",52.3349753200,17.0120519900,B
3714,"WOPO08","Wojska Polskiego",52.4283784487,16.8972787692,A
3715,"WOPO06","Wojska Polskiego",52.4288646237,16.8969245877,A
3716,"WOPO05","Wojska Polskiego",52.4292337530,16.8971459512,A
3717,"DZDB02","Dojazd Biocentrum",52.4331409323,16.8993595857,A
3718,"DZDB01","Dojazd Biocentrum",52.4328438548,16.8991824949,A
3719,"JSNZ01","Morasko Jaśkowiaka",52.4886360000,16.9146980000,A
3720,"JSNZ02","Morasko Jaśkowiaka",52.4886400000,16.9153240000,A
3722,"BOKRE01","Bolechowo/Kręta",52.5434071204,16.9941769305,C
3723,"BOKRE02","Bolechowo/Kręta",52.5432544639,16.9947082027,C
3734,"BOSTA01","Bolechowo-Os./Stacja",52.5401473401,16.9784010952,C
3736,"MALI02","Malinowa",52.3696018351,16.9111066061,A
3738,"PRSOS01","Promnice/Sosnowa",52.5446822303,16.9661965903,C
3739,"PRSOS02","Promnice/Sosnowa",52.5449695739,16.9657538634,C
3740,"MALI01","Malinowa",52.3693870000,16.9097160000,A
3747,"ZERO72","Żeromskiego",52.4155430100,16.8908253300,A
3748,"ZERO71","Żeromskiego",52.4157411000,16.8903614400,A
3751,"ZLSTA02","Złotniki/Stacja",52.4951772031,16.8367580017,B
3754,"PADWR01","Palędzie/Dworzec Kolejowy",52.3744788387,16.7444051700,C
3761,"SARN01","Sarnia",52.4089180000,17.0445280000,A
3762,"SARN02","Sarnia",52.4101300000,17.0440530000,A
3763,"SOSN03","Sośnicka",52.4061170000,17.0439620000,A
3765,"TRTOD02","Trzek/Topolowa",52.3471570741,17.1537504634,B
3766,"TRTOD01","Trzek/Topolowa",52.3475088477,17.1533667668,B
3767,"GWAKA01","Gowarzewo/Akacjowa",52.3609823754,17.1320568452,B
3768,"ZOO02","Nowe ZOO",52.4003671000,16.9928965800,A
3769,"KEPI01","Kępińska",52.3707107021,16.8800124201,A
3770,"KEPI02","Kępińska",52.3708369128,16.8794073600,A
3771,"ZNIW71","Żniwna",52.4243429100,16.9263538700,A
